ros_time,ticks_L,ticks_R,ticks_UNUSED,delta_ticks_L,delta_ticks_R,delta_ticks_UNUSED,delta_time_usec
1749330298.514686645,120847,-183441,0,0,0,0,40286
1749330298.565442118,120847,-183441,0,0,0,0,40300
1749330298.618421022,120847,-183441,0,0,0,0,41043
1749330298.675489105,120847,-183441,0,0,0,0,40285
1749330298.731383085,120847,-183441,0,0,0,0,40281
1749330298.785414538,120847,-183441,0,0,0,0,40324
1749330298.834354763,120847,-183441,0,0,0,0,40390
1749330298.888419031,120847,-183441,0,0,0,0,40284
1749330298.942333929,120847,-183441,0,0,0,0,40298
1749330298.999383605,120847,-183441,0,0,0,0,40284
1749330299.057356331,120847,-183441,0,0,0,0,40293
1749330299.112440093,120847,-183441,0,0,0,0,40264
1749330299.164422077,120847,-183441,0,0,0,0,40297
1749330299.214458388,120847,-183441,0,0,0,0,40296
1749330299.268248639,120847,-183441,0,0,0,0,40283
1749330299.323385808,120847,-183441,0,0,0,0,40295
1749330299.379306898,120847,-183441,0,0,0,0,41056
1749330299.435416988,120847,-183441,0,0,0,0,40270
1749330299.489359571,120847,-183441,0,0,0,0,40293
1749330299.545431346,120847,-183441,0,0,0,0,40298
1749330299.598520212,120847,-183441,0,0,0,0,40597
1749330299.650352697,120847,-183441,0,0,0,0,40282
1749330299.707315411,120847,-183441,0,0,0,0,40291
1749330299.760443629,120847,-183441,0,0,0,0,40276
1749330299.814307750,120847,-183441,0,0,0,0,41082
1749330299.868438851,120847,-183441,0,0,0,0,40292
1749330299.924445070,120847,-183441,0,0,0,0,40277
1749330299.978469024,120847,-183441,0,0,0,0,40279
1749330300.032478699,120847,-183441,0,0,0,0,40294
1749330300.083500152,120847,-183441,0,0,0,0,40283
1749330300.133412593,120847,-183441,0,0,0,0,40279
1749330300.184442750,120847,-183441,0,0,0,0,41024
1749330300.237358506,120847,-183441,0,0,0,0,40282
1749330300.293415522,120847,-183441,0,0,0,0,40301
1749330300.346305926,120847,-183441,0,0,0,0,40293
1749330300.397550341,120847,-183441,0,0,0,0,40607
1749330300.445371035,120847,-183441,0,0,0,0,40292
1749330300.503489520,120847,-183441,0,0,0,0,40292
1749330300.559325166,120847,-183441,0,0,0,0,40293
1749330300.609349107,120847,-183441,0,0,0,0,41521
1749330300.663462282,120847,-183441,0,0,0,0,40280
1749330300.716360057,120847,-183441,0,0,0,0,40296
1749330300.770494232,120847,-183441,0,0,0,0,40296
1749330300.826415877,120847,-183441,0,0,0,0,40296
1749330300.879507762,120847,-183441,0,0,0,0,40293
1749330300.934464784,120847,-183441,0,0,0,0,40282
1749330300.988492793,120847,-183441,0,0,0,0,40284
1749330301.039494283,120847,-183441,0,0,0,0,40300
1749330301.096547274,120847,-183441,0,0,0,0,40289
1749330301.154420982,120847,-183441,0,0,0,0,40285
1749330301.210486553,120847,-183441,0,0,0,0,40310
1749330301.260383717,120847,-183441,0,0,0,0,40283
1749330301.313505990,120847,-183441,0,0,0,0,40288
1749330301.370398760,120847,-183441,0,0,0,0,40298
1749330301.420598958,120847,-183441,0,0,0,0,40766
1749330301.475480833,120847,-183441,0,0,0,0,40275
1749330301.529431824,120847,-183441,0,0,0,0,40295
1749330301.580547332,120847,-183441,0,0,0,0,40295
1749330301.630501809,120847,-183441,0,0,0,0,40459
1749330301.686524510,120847,-183441,0,0,0,0,40297
1749330301.742480767,120847,-183441,0,0,0,0,40280
1749330301.795501578,120847,-183441,0,0,0,0,40278
1749330301.854438095,120847,-183441,0,0,0,0,40287
1749330301.909455931,120847,-183441,0,0,0,0,40279
1749330301.965529131,120847,-183441,0,0,0,0,40298
1749330302.018554517,120847,-183441,0,0,0,0,40359
1749330302.070587038,120847,-183441,0,0,0,0,40284
1749330302.125556152,120847,-183441,0,0,0,0,40297
1749330302.179499310,120847,-183441,0,0,0,0,40281
1749330302.234450850,120847,-183441,0,0,0,0,41392
1749330302.293468607,120847,-183441,0,0,0,0,40299
1749330302.347439024,120847,-183441,0,0,0,0,40281
1749330302.401611624,120847,-183441,0,0,0,0,40894
1749330302.454558973,120847,-183441,0,0,0,0,40298
1749330302.510466915,120847,-183441,0,0,0,0,40297
1749330302.563547078,120847,-183441,0,0,0,0,40287
1749330302.616465835,120860,-183450,0,35,-34,0,40401
1749330302.675486925,120895,-183484,0,59,-56,0,40378
1749330302.731412237,121032,-183615,0,94,-90,0,41203
1749330302.785546894,121126,-183705,0,104,-100,0,40412
1749330302.840560934,121230,-183805,0,113,-108,0,40399
1749330302.897582499,121462,-184027,0,128,-122,0,41522
1749330302.949615964,121590,-184149,0,128,-122,0,40375
1749330303.003559011,121718,-184271,0,131,-126,0,40405
1749330303.057717834,121983,-184525,0,137,-131,0,41027
1749330303.114588715,122120,-184656,0,137,-130,0,40377
1749330303.166550847,122257,-184786,0,137,-131,0,40388
1749330303.220580967,122533,-185049,0,139,-132,0,40388
1749330303.277535181,122672,-185181,0,141,-135,0,40917
1749330303.336580715,122813,-185316,0,141,-134,0,40408
1749330303.391462867,123093,-185583,0,140,-135,0,40432
1749330303.448587191,123233,-185718,0,142,-136,0,40916
1749330303.504627391,123515,-185988,0,140,-135,0,40397
1749330303.556612487,123655,-186123,0,139,-135,0,40380
1749330303.614487917,123794,-186258,0,140,-135,0,40421
1749330303.674538316,124075,-186530,0,140,-135,0,40412
1749330303.724392276,124215,-186665,0,140,-136,0,40384
1749330303.777561920,124355,-186801,0,143,-138,0,41224
1749330303.834514800,124638,-187075,0,141,-136,0,40398
1749330303.892594562,124779,-187211,0,141,-136,0,40400
1749330303.944587602,125060,-187482,0,142,-137,0,40583
1749330303.993678122,125202,-187619,0,141,-136,0,40394
1749330304.049490880,125343,-187755,0,141,-136,0,40394
1749330304.096484505,125484,-187891,0,141,-137,0,40402
1749330304.148616655,125767,-188166,0,141,-136,0,40398
1749330304.202536794,125908,-188302,0,142,-137,0,40400
1749330304.258616532,126050,-188439,0,141,-136,0,40400
1749330304.311541325,126332,-188712,0,143,-137,0,40635
1749330304.369616180,126475,-188849,0,141,-136,0,40371
1749330304.421541702,126616,-188985,0,141,-137,0,40408
1749330304.473619537,126898,-189258,0,144,-139,0,41011
1749330304.528563263,127042,-189397,0,140,-137,0,40377
1749330304.580694598,127182,-189534,0,141,-136,0,40399
1749330304.632583731,127323,-189670,0,141,-137,0,40403
1749330304.690590827,127605,-189944,0,142,-138,0,40713
1749330304.742525182,127747,-190082,0,140,-137,0,40378
1749330304.799606895,128028,-190356,0,140,-138,0,40413
1749330304.858607800,128168,-190494,0,143,-139,0,41029
1749330304.915600624,128311,-190633,0,141,-137,0,40399
1749330304.973544406,128593,-190907,0,141,-138,0,40399
1749330305.030660730,128734,-191045,0,141,-137,0,40397
1749330305.085526141,129018,-191322,0,141,-138,0,40402
1749330305.137690402,129159,-191460,0,142,-138,0,40376
1749330305.195499926,129301,-191598,0,141,-138,0,40387
1749330305.251734051,129585,-191874,0,141,-138,0,40404
1749330305.311580469,129726,-192012,0,142,-138,0,40380
1749330305.368650238,130009,-192288,0,142,-138,0,40392
1749330305.420540352,130151,-192426,0,144,-140,0,41155
1749330305.475676540,130295,-192566,0,142,-138,0,40394
1749330305.534593482,130578,-192842,0,141,-138,0,40399
1749330305.593648128,130719,-192980,0,142,-138,0,40574
1749330305.645563798,131002,-193256,0,141,-138,0,40391
1749330305.704727776,131143,-193394,0,141,-138,0,40394
1749330305.765603929,131284,-193532,0,141,-139,0,40409
1749330305.819692215,131567,-193810,0,140,-138,0,40392
1749330305.873624003,131707,-193948,0,141,-138,0,40383
1749330305.926708351,131848,-194086,0,141,-139,0,40398
1749330305.977624693,132132,-194366,0,141,-138,0,40413
1749330306.029679066,132273,-194504,0,141,-139,0,40383
1749330306.085682322,132414,-194643,0,141,-139,0,40390
1749330306.141702282,132700,-194924,0,141,-138,0,40392
1749330306.197544928,132841,-195062,0,142,-139,0,40388
1749330306.253712369,132983,-195201,0,141,-138,0,40393
1749330306.310582824,133268,-195480,0,141,-139,0,40403
1749330306.365703993,133409,-195619,0,142,-139,0,40377
1749330306.418681305,133692,-195896,0,142,-138,0,40405
1749330306.471765782,133834,-196034,0,143,-141,0,40967
1749330306.523753489,133977,-196175,0,142,-138,0,40407
1749330306.576742300,134119,-196313,0,141,-139,0,40401
1749330306.627662568,134406,-196594,0,141,-138,0,40390
1749330306.681722522,134547,-196732,0,141,-138,0,40382
1749330306.735618994,134688,-196870,0,141,-138,0,40405
1749330306.789780188,134970,-197146,0,142,-139,0,40719
1749330306.846652383,135112,-197285,0,141,-138,0,40381
1749330306.895679904,135253,-197423,0,141,-138,0,40388
1749330306.945633585,135535,-197700,0,142,-140,0,40818
1749330306.997648032,135677,-197840,0,141,-138,0,40405
1749330307.050651677,135818,-197978,0,141,-139,0,40408
1749330307.103718303,135959,-198117,0,141,-138,0,40387
1749330307.156681504,136240,-198394,0,143,-140,0,40746
1749330307.210759994,136383,-198534,0,141,-138,0,40397
1749330307.267655152,136524,-198672,0,141,-139,0,40379
1749330307.324731754,136807,-198950,0,144,-141,0,41183
1749330307.378655301,136951,-199091,0,141,-139,0,40376
1749330307.432882216,137234,-199369,0,142,-139,0,40410
1749330307.486705522,137376,-199508,0,145,-143,0,41490
1749330307.541764544,137521,-199651,0,142,-139,0,40407
1749330307.594916502,137804,-199928,0,121,-118,0,40391
1749330307.649893709,137925,-200046,0,91,-89,0,40982
1749330307.704744973,138016,-200135,0,64,-61,0,40384
1749330307.759806401,138125,-200237,0,22,-35,0,40400
1749330307.816671171,138147,-200272,0,1,-36,0,40387
1749330307.868811247,138148,-200308,0,0,-37,0,40996
1749330307.922725720,138142,-200384,0,-11,-39,0,40401
1749330307.978870586,138131,-200423,0,-18,-41,0,40376
1749330308.031721158,138113,-200464,0,-24,-41,0,40689
1749330308.082814092,138061,-200546,0,-31,-42,0,40394
1749330308.134713484,138030,-200588,0,-34,-42,0,40393
1749330308.187789813,137996,-200630,0,-35,-43,0,40395
1749330308.246728645,137924,-200716,0,-37,-42,0,40385
1749330308.301759111,137887,-200758,0,-38,-43,0,40357
1749330308.354716182,137849,-200801,0,-39,-43,0,40398
1749330308.407830344,137770,-200887,0,-39,-43,0,40401
1749330308.461725724,137731,-200930,0,-40,-43,0,40393
1749330308.520780333,137691,-200973,0,-40,-43,0,40388
1749330308.574803434,137612,-201058,0,-41,-43,0,40691
1749330308.625927313,137571,-201101,0,-40,-43,0,40378
1749330308.678732625,137531,-201144,0,-40,-43,0,40381
1749330308.732817986,137451,-201229,0,-41,-43,0,40979
1749330308.784713915,137410,-201272,0,-40,-43,0,40370
1749330308.838818998,137370,-201315,0,-40,-42,0,40408
1749330308.895726508,137290,-201400,0,-40,-43,0,40404
1749330308.949854683,137250,-201443,0,-41,-43,0,40781
1749330309.004779149,137209,-201486,0,-40,-42,0,40376
1749330309.057918979,137129,-201570,0,-40,-42,0,40398
1749330309.109764612,137089,-201612,0,-41,-43,0,41201
1749330309.161852410,137048,-201655,0,-40,-42,0,40378
1749330309.219732322,136968,-201739,0,-40,-42,0,40409
1749330309.272871336,136928,-201781,0,-42,-43,0,41784
1749330309.324777099,136886,-201824,0,-40,-43,0,40399
1749330309.380859947,136806,-201909,0,-41,-42,0,40406
1749330309.435785747,136765,-201951,0,-40,-42,0,40666
1749330309.496909769,136725,-201993,0,-40,-42,0,40378
1749330309.550769242,136645,-202077,0,-41,-42,0,40397
1749330309.601893213,136604,-202119,0,-40,-42,0,40374
1749330309.655808056,136564,-202161,0,-41,-42,0,40745
1749330309.708855089,136483,-202245,0,-40,-42,0,40398
1749330309.763730389,136443,-202287,0,-40,-42,0,40380
1749330309.812910909,136403,-202329,0,-41,-43,0,40912
1749330309.866819085,136322,-202414,0,-40,-42,0,40403
1749330309.923738707,136282,-202456,0,-41,-42,0,40398
1749330309.974940862,136241,-202498,0,-39,-42,0,40383
1749330310.027784897,136161,-202582,0,-40,-42,0,40401
1749330310.082877177,136121,-202624,0,-40,-42,0,40374
1749330310.137767033,136081,-202666,0,-40,-42,0,40408
1749330310.191896652,136000,-202750,0,-40,-42,0,40388
1749330310.244826316,135960,-202792,0,-39,-42,0,40385
1749330310.298876306,135921,-202834,0,-40,-42,0,40385
1749330310.350796254,135840,-202918,0,-40,-42,0,40716
1749330310.403851972,135800,-202960,0,-40,-41,0,40367
1749330310.457823926,135760,-203001,0,-40,-42,0,40394
1749330310.511891268,135680,-203085,0,-41,-42,0,40979
1749330310.562799426,135639,-203127,0,-40,-42,0,40369
1749330310.619866805,135599,-203169,0,-40,-42,0,40391
1749330310.670804925,135519,-203252,0,-40,-42,0,40386
1749330310.729843663,135479,-203294,0,-41,-43,0,41140
1749330310.782806846,135438,-203337,0,-40,-42,0,40387
1749330310.835921879,135358,-203420,0,-40,-42,0,40398
1749330310.888873357,135318,-203462,0,-40,-42,0,40693
1749330310.946921897,135278,-203504,0,-40,-42,0,40404
1749330310.998805160,135198,-203588,0,-32,-34,0,40382
1749330311.055936317,135166,-203622,0,-22,-22,0,40358
1749330311.107886320,135144,-203644,0,-12,-12,0,41280
1749330311.161951088,135126,-203659,0,0,0,0,40377
1749330311.220815994,135126,-203659,0,10,-18,0,41420
1749330311.270929804,135136,-203677,0,29,-43,0,40396
1749330311.323846560,135218,-203783,0,74,-81,0,40404
1749330311.377927773,135292,-203864,0,90,-94,0,40384
1749330311.432877165,135382,-203958,0,103,-105,0,40706
1749330311.485956513,135595,-204175,0,118,-119,0,40394
1749330311.541034868,135713,-204294,0,123,-123,0,40385
1749330311.593987883,135836,-204417,0,130,-128,0,41010
1749330311.647869023,136096,-204673,0,133,-131,0,40405
1749330311.702974562,136229,-204804,0,135,-131,0,40381
1749330311.756865331,136364,-204935,0,136,-133,0,40404
1749330311.810056586,136639,-205202,0,137,-134,0,40410
1749330311.861909589,136776,-205336,0,139,-135,0,40384
1749330311.919962111,136915,-205471,0,139,-135,0,40395
1749330311.975906109,137196,-205743,0,139,-136,0,40396
1749330312.028996438,137335,-205879,0,140,-136,0,40382
1749330312.082890429,137475,-206015,0,140,-136,0,40410
1749330312.134007845,137755,-206288,0,143,-139,0,40945
1749330312.183797064,137898,-206427,0,140,-136,0,40382
1749330312.235095571,138038,-206563,0,140,-137,0,40411
1749330312.290900347,138178,-206700,0,141,-136,0,40396
1749330312.347928968,138461,-206973,0,141,-136,0,40410
1749330312.402819601,138602,-207109,0,140,-137,0,40381
1749330312.454127923,138883,-207382,0,144,-140,0,41528
1749330312.507938489,139027,-207522,0,141,-136,0,40370
1749330312.565999844,139168,-207658,0,140,-137,0,40409
1749330312.622853725,139448,-207932,0,143,-139,0,41042
1749330312.677982931,139591,-208071,0,141,-137,0,40376
1749330312.732998545,139732,-208208,0,141,-137,0,40398
1749330312.788000122,140014,-208483,0,141,-137,0,40399
1749330312.844886207,140155,-208620,0,143,-138,0,40766
1749330312.896030585,140298,-208758,0,141,-138,0,40388
1749330312.946027063,140580,-209033,0,142,-137,0,40408
1749330313.005007357,140722,-209170,0,144,-140,0,40981
1749330313.062927694,140866,-209310,0,141,-138,0,40401
1749330313.115053103,141148,-209585,0,141,-138,0,40400
1749330313.167939693,141289,-209723,0,146,-142,0,41660
1749330313.221049004,141435,-209865,0,142,-138,0,40386
1749330313.279925725,141718,-210141,0,141,-137,0,40402
1749330313.337960432,141859,-210278,0,144,-140,0,40970
1749330313.393127971,142144,-210557,0,141,-138,0,40413
1749330313.447003944,142285,-210695,0,141,-138,0,40395
1749330313.500956324,142426,-210833,0,141,-138,0,40389
1749330313.560013191,142709,-211112,0,141,-138,0,40412
1749330313.617895492,142850,-211250,0,141,-138,0,40386
1749330313.670051475,143132,-211527,0,142,-139,0,40620
1749330313.722989917,143274,-211666,0,141,-138,0,40373
1749330313.783037575,143415,-211804,0,141,-139,0,40418
1749330313.839966603,143697,-212081,0,141,-138,0,40414
1749330313.890049080,143838,-212219,0,143,-139,0,40749
1749330313.940904442,143981,-212358,0,141,-138,0,40393
1749330313.994031938,144122,-212496,0,142,-138,0,40415
1749330314.047950336,144406,-212772,0,144,-139,0,40935
1749330314.107058500,144550,-212911,0,141,-138,0,40377
1749330314.159946256,144833,-213187,0,141,-138,0,40408
1749330314.215078518,144974,-213325,0,142,-138,0,40366
1749330314.267003873,145116,-213463,0,143,-140,0,40706
1749330314.320079610,145400,-213741,0,142,-138,0,40399
1749330314.370991860,145542,-213879,0,142,-139,0,40390
1749330314.426095733,145684,-214018,0,143,-141,0,40983
1749330314.480988477,145827,-214159,0,141,-139,0,40400
1749330314.536138720,146110,-214437,0,141,-139,0,40419
1749330314.589097828,146251,-214576,0,141,-139,0,40381
1749330314.647078406,146392,-214715,0,142,-140,0,40709
1749330314.703951842,146675,-214993,0,141,-139,0,40390
1749330314.761043222,146816,-215132,0,141,-139,0,40388
1749330314.811953361,147100,-215412,0,141,-139,0,40396
1749330314.865130152,147241,-215551,0,141,-139,0,40411
1749330314.922946991,147382,-215690,0,141,-140,0,40394
1749330314.975274325,147664,-215969,0,144,-141,0,41010
1749330315.033047663,147808,-216110,0,142,-139,0,40378
1749330315.092106957,147950,-216249,0,142,-139,0,40398
1749330315.143026780,148233,-216527,0,143,-140,0,40683
1749330315.196132017,148376,-216667,0,142,-139,0,40378
1749330315.251037799,148518,-216806,0,142,-139,0,40398
1749330315.309111061,148802,-217085,0,142,-139,0,40415
1749330315.362041447,148944,-217224,0,144,-142,0,41116
1749330315.416143900,149230,-217505,0,141,-139,0,40401
1749330315.470038151,149371,-217644,0,142,-139,0,40390
1749330315.523190720,149513,-217783,0,143,-141,0,40727
1749330315.575034965,149797,-218063,0,141,-140,0,40409
1749330315.634116036,149938,-218203,0,142,-139,0,40382
1749330315.689042614,150080,-218342,0,140,-140,0,40409
1749330315.742114795,150363,-218623,0,141,-140,0,40407
1749330315.796043490,150504,-218763,0,141,-139,0,40386
1749330315.850095091,150645,-218902,0,141,-140,0,40391
1749330315.900013291,150929,-219184,0,142,-139,0,40403
1749330315.958104517,151071,-219323,0,141,-140,0,40392
1749330316.011002273,151212,-219463,0,141,-139,0,40389
1749330316.067194158,151499,-219745,0,141,-140,0,40407
1749330316.122000200,151640,-219885,0,142,-139,0,40377
1749330316.179146190,151782,-220024,0,142,-139,0,40407
1749330316.234075601,152066,-220303,0,121,-118,0,40392
1749330316.284038356,152187,-220421,0,90,-88,0,40372
1749330316.341198235,152277,-220509,0,64,-61,0,40386
1749330316.396074702,152386,-220612,0,30,-26,0,40389
1749330316.449227587,152416,-220638,0,10,-25,0,40770
1749330316.505091252,152426,-220663,0,-2,-28,0,40390
1749330316.559166520,152423,-220722,0,-2,-34,0,40406
1749330316.612031961,152421,-220756,0,-13,-38,0,41508
1749330316.668141939,152408,-220794,0,-21,-38,0,40388
1749330316.723029536,152361,-220871,0,-29,-40,0,40399
1749330316.776166495,152332,-220911,0,-32,-41,0,40397
1749330316.830167430,152300,-220952,0,-35,-42,0,40702
1749330316.885224951,152229,-221036,0,-37,-42,0,40412
1749330316.943090844,152192,-221078,0,-38,-43,0,40380
1749330316.997231075,152116,-221164,0,-39,-43,0,40387
1749330317.050096757,152077,-221207,0,-39,-44,0,40363
1749330317.107264396,152038,-221251,0,-40,-43,0,40407
1749330317.155067424,151958,-221337,0,-40,-44,0,40842
1749330317.211292642,151918,-221381,0,-40,-43,0,40373
1749330317.263120738,151878,-221424,0,-40,-44,0,40404
1749330317.318342795,151798,-221511,0,-40,-45,0,40979
1749330317.372100065,151758,-221556,0,-40,-43,0,40372
1749330317.426242259,151718,-221599,0,-41,-44,0,40375
1749330317.477143620,151637,-221686,0,-40,-44,0,40400
1749330317.531229925,151597,-221730,0,-41,-44,0,40684
1749330317.584118014,151556,-221774,0,-40,-43,0,40408
1749330317.637255973,151516,-221817,0,-40,-44,0,40380
1749330317.692272569,151436,-221904,0,-41,-44,0,40933
1749330317.746265560,151395,-221948,0,-40,-44,0,40365
1749330317.800171717,151355,-221992,0,-40,-43,0,40391
1749330317.850196991,151275,-222079,0,-40,-44,0,40404
1749330317.903269284,151235,-222123,0,-41,-44,0,41242
1749330317.956418465,151194,-222167,0,-40,-43,0,40378
1749330318.013266142,151114,-222254,0,-41,-44,0,41409
1749330318.064313169,151073,-222298,0,-40,-43,0,40387
1749330318.121283586,151033,-222341,0,-40,-43,0,40381
1749330318.178145133,150953,-222427,0,-41,-44,0,41492
1749330318.230305617,150912,-222471,0,-40,-44,0,40375
1749330318.284228311,150872,-222515,0,-40,-43,0,40379
1749330318.333269610,150792,-222601,0,-40,-44,0,40666
1749330318.391226910,150752,-222645,0,-40,-43,0,40378
1749330318.442203807,150712,-222688,0,-40,-43,0,40394
1749330318.500283163,150632,-222774,0,-40,-43,0,40391
1749330318.553164975,150592,-222817,0,-40,-44,0,40741
1749330318.604397834,150552,-222861,0,-40,-43,0,40385
1749330318.653163411,150472,-222947,0,-40,-44,0,40415
1749330318.706432462,150432,-222991,0,-40,-43,0,40985
1749330318.765228442,150392,-223034,0,-40,-43,0,40388
1749330318.815270605,150312,-223120,0,-40,-43,0,40398
1749330318.868200991,150272,-223163,0,-40,-43,0,40384
1749330318.923322901,150232,-223206,0,-40,-43,0,40735
1749330318.977224207,150192,-223249,0,-40,-43,0,40384
1749330319.030331388,150112,-223335,0,-40,-43,0,40391
1749330319.083252385,150072,-223378,0,-40,-43,0,40966
1749330319.140289913,150032,-223421,0,-41,-43,0,40378
1749330319.194228311,149951,-223507,0,-40,-43,0,40401
1749330319.248338449,149911,-223550,0,-40,-43,0,40390
1749330319.298168465,149871,-223593,0,-41,-43,0,41001
1749330319.350410577,149790,-223679,0,-40,-43,0,40386
1749330319.402236266,149750,-223722,0,-40,-43,0,40393
1749330319.454307806,149710,-223765,0,-41,-43,0,40867
1749330319.508282444,149629,-223851,0,-40,-42,0,40403
1749330319.563345595,149589,-223893,0,-41,-43,0,40371
1749330319.616308666,149548,-223936,0,-41,-43,0,40406
1749330319.673347083,149466,-224022,0,-33,-34,0,40375
1749330319.727285037,149433,-224056,0,-22,-23,0,40368
1749330319.784421694,149411,-224079,0,-14,-12,0,40386
1749330319.836221865,149391,-224098,0,6,-19,0,40395
1749330319.892425583,149397,-224117,0,28,-45,0,40397
1749330319.948259340,149425,-224162,0,51,-67,0,40389
1749330320.005358386,149548,-224312,0,90,-97,0,40757
1749330320.056251044,149638,-224409,0,101,-106,0,40391
1749330320.113341127,149739,-224515,0,111,-114,0,40404
1749330320.170305137,149967,-224749,0,125,-125,0,40936
1749330320.227473719,150092,-224874,0,127,-127,0,40390
1749330320.283301495,150349,-225130,0,133,-131,0,40417
1749330320.332461071,150482,-225261,0,135,-133,0,40377
1749330320.386285322,150617,-225394,0,137,-134,0,40652
1749330320.439255281,150891,-225662,0,138,-135,0,40411
1749330320.491388265,151029,-225797,0,139,-136,0,40406
1749330320.544297262,151168,-225933,0,140,-137,0,40964
1749330320.597405925,151448,-226206,0,139,-136,0,40410
1749330320.646253965,151587,-226342,0,140,-136,0,40380
1749330320.704376819,151727,-226478,0,141,-136,0,40403
1749330320.759319545,151868,-226614,0,142,-138,0,41046
1749330320.810421461,152151,-226888,0,141,-137,0,40394
1749330320.859368167,152292,-227025,0,145,-140,0,41553
1749330320.915405164,152437,-227165,0,140,-137,0,40387
1749330320.970358352,152718,-227439,0,142,-137,0,40406
1749330321.029431646,152860,-227576,0,141,-137,0,40379
1749330321.079314235,153001,-227713,0,142,-138,0,40728
1749330321.139402597,153284,-227989,0,141,-138,0,40399
1749330321.194330711,153425,-228127,0,141,-137,0,40413
1749330321.247427170,153710,-228405,0,140,-138,0,40388
1749330321.300348686,153850,-228543,0,141,-138,0,40386
1749330321.357386640,153991,-228681,0,141,-138,0,40403
1749330321.408395352,154277,-228960,0,140,-138,0,40391
1749330321.462442194,154417,-229098,0,141,-138,0,40366
1749330321.519353908,154558,-229236,0,141,-138,0,40410
1749330321.572470423,154843,-229515,0,140,-138,0,40408
1749330321.622293512,154983,-229653,0,142,-137,0,40374
1749330321.676468076,155125,-229790,0,141,-138,0,40396
1749330321.728421024,155266,-229928,0,146,-143,0,41651
1749330321.780529303,155553,-230209,0,142,-139,0,40411
1749330321.834348406,155695,-230348,0,141,-138,0,40387
1749330321.891404860,155836,-230486,0,144,-140,0,40955
1749330321.946387289,156122,-230765,0,142,-138,0,40403
1749330321.998470921,156264,-230903,0,141,-139,0,40398
1749330322.051369770,156405,-231042,0,142,-138,0,40387
1749330322.108435020,156691,-231320,0,141,-139,0,40407
1749330322.162348030,156832,-231459,0,142,-137,0,40381
1749330322.221425045,156974,-231596,0,142,-138,0,40405
1749330322.274390135,157259,-231873,0,141,-139,0,40398
1749330322.332463342,157400,-232012,0,141,-138,0,40382
1749330322.388376543,157683,-232289,0,141,-139,0,40417
1749330322.445462589,157824,-232428,0,144,-140,0,41058
1749330322.498411494,157968,-232568,0,141,-139,0,40381
1749330322.552498965,158250,-232846,0,145,-143,0,41539
1749330322.607378950,158395,-232989,0,142,-139,0,40382
1749330322.661592829,158537,-233128,0,141,-139,0,40383
1749330322.713616479,158819,-233406,0,142,-139,0,40410
1749330322.769476959,158961,-233545,0,143,-140,0,40732
1749330322.827354389,159104,-233685,0,142,-138,0,40395
1749330322.883488015,159388,-233962,0,142,-138,0,40399
1749330322.941443945,159530,-234100,0,144,-140,0,40980
1749330322.997477701,159816,-234379,0,142,-139,0,40421
1749330323.049389278,159958,-234518,0,142,-138,0,40382
1749330323.108543646,160100,-234656,0,146,-143,0,41628
1749330323.162589062,160388,-234938,0,142,-139,0,40398
1749330323.216521423,160530,-235077,0,142,-139,0,40398
1749330323.268536759,160672,-235216,0,144,-141,0,40959
1749330323.321519108,160957,-235496,0,142,-140,0,40406
1749330323.375430599,161099,-235636,0,141,-139,0,40391
1749330323.429567885,161240,-235775,0,142,-140,0,40407
1749330323.478512128,161525,-236056,0,142,-140,0,40406
1749330323.532499026,161667,-236196,0,141,-139,0,40384
1749330323.585405857,161808,-236335,0,145,-144,0,41648
1749330323.637547229,161953,-236479,0,142,-140,0,40399
1749330323.689452603,162236,-236759,0,142,-139,0,40427
1749330323.750532088,162378,-236898,0,141,-140,0,40390
1749330323.802435332,162664,-237180,0,142,-139,0,40412
1749330323.858519384,162806,-237319,0,141,-140,0,40374
1749330323.913460424,162947,-237459,0,146,-142,0,41373
1749330323.962522537,163093,-237601,0,142,-140,0,40397
1749330324.014477003,163377,-237880,0,141,-140,0,40409
1749330324.068445272,163518,-238020,0,143,-139,0,40393
1749330324.120566663,163661,-238159,0,143,-141,0,40673
1749330324.173478789,163945,-238439,0,143,-140,0,40407
1749330324.231565311,164088,-238579,0,142,-139,0,40409
1749330324.286479296,164230,-238718,0,143,-142,0,40920
1749330324.339557570,164515,-238999,0,142,-140,0,40397
1749330324.394471666,164657,-239139,0,142,-140,0,40385
1749330324.452594577,164799,-239279,0,141,-139,0,40410
1749330324.506482420,165083,-239559,0,141,-139,0,40413
1749330324.560572243,165224,-239698,0,141,-140,0,40375
1749330324.617451476,165506,-239978,0,143,-141,0,40832
1749330324.671597577,165649,-240119,0,141,-139,0,40366
1749330324.720413728,165790,-240258,0,142,-141,0,40415
1749330324.771678976,165932,-240399,0,141,-139,0,40395
1749330324.825440042,166214,-240678,0,144,-142,0,41047
1749330324.882556033,166358,-240820,0,121,-119,0,40369
1749330324.937615683,166479,-240939,0,90,-87,0,40387
1749330324.989617464,166633,-241088,0,45,-42,0,40751
1749330325.043476641,166678,-241130,0,30,-27,0,40377
1749330325.096676210,166708,-241157,0,19,-15,0,40371
1749330325.149464356,166730,-241188,0,-3,-21,0,40399
1749330325.201563729,166727,-241209,0,0,-26,0,41065
1749330325.254494077,166727,-241235,0,-5,-31,0,40389
1749330325.310589037,166706,-241299,0,-23,-36,0,41543
1749330325.366523794,166683,-241335,0,-28,-37,0,40368
1749330325.419597845,166655,-241372,0,-31,-38,0,40378
1749330325.476549967,166591,-241450,0,-35,-40,0,40389
1749330325.530573457,166556,-241490,0,-37,-41,0,40806
1749330325.577495361,166519,-241531,0,-37,-42,0,40376
1749330325.630597042,166444,-241615,0,-39,-42,0,40399
1749330325.687499515,166405,-241657,0,-40,-43,0,40986
1749330325.739742053,166365,-241700,0,-39,-42,0,40403
1749330325.786465958,166286,-241784,0,-40,-43,0,40408
1749330325.842590547,166246,-241827,0,-39,-42,0,40376
1749330325.896553908,166207,-241869,0,-41,-43,0,40705
1749330325.949638404,166166,-241912,0,-39,-43,0,40388
1749330326.003515118,166087,-241998,0,-40,-42,0,40398
1749330326.059631596,166047,-242040,0,-40,-44,0,40972
1749330326.111549840,166007,-242084,0,-40,-43,0,40374
1749330326.166611620,165927,-242170,0,-40,-42,0,40378
1749330326.219523784,165887,-242212,0,-40,-43,0,40385
1749330326.278648429,165847,-242255,0,-40,-44,0,41066
1749330326.335541125,165767,-242341,0,-40,-43,0,40406
1749330326.388655843,165727,-242384,0,-41,-45,0,41600
1749330326.447563841,165646,-242472,0,-40,-43,0,40398
1749330326.505618381,165606,-242515,0,-40,-42,0,40368
1749330326.558617563,165526,-242600,0,-40,-44,0,40722
1749330326.613615566,165486,-242644,0,-40,-42,0,40373
1749330326.668625792,165446,-242686,0,-39,-43,0,40400
1749330326.717568109,165367,-242772,0,-41,-44,0,40970
1749330326.782544089,165326,-242816,0,-39,-43,0,40364
1749330326.834567425,165287,-242859,0,-40,-42,0,40406
1749330326.887749828,165207,-242944,0,-40,-43,0,40389
1749330326.945600962,165167,-242987,0,-40,-43,0,40806
1749330326.996690211,165127,-243030,0,-40,-43,0,40386
1749330327.053594221,165047,-243116,0,-40,-43,0,40391
1749330327.107732581,165007,-243159,0,-41,-43,0,40992
1749330327.165640474,164966,-243202,0,-40,-43,0,40395
1749330327.222629651,164886,-243288,0,-40,-43,0,40410
1749330327.277690654,164846,-243331,0,-40,-42,0,40379
1749330327.338705973,164766,-243416,0,-40,-43,0,40404
1749330327.393563921,164726,-243459,0,-40,-43,0,40373
1749330327.448678349,164686,-243502,0,-40,-42,0,40385
1749330327.506608853,164605,-243588,0,-41,-42,0,40386
1749330327.562787627,164564,-243630,0,-40,-43,0,40390
1749330327.615704106,164483,-243716,0,-40,-43,0,40404
1749330327.675682116,164443,-243759,0,-42,-43,0,41044
1749330327.730682730,164401,-243802,0,-41,-42,0,40377
1749330327.785711215,164320,-243887,0,-42,-43,0,41601
1749330327.842602003,164278,-243930,0,-41,-42,0,40385
1749330327.896712234,164237,-243972,0,-40,-42,0,40381
1749330327.948767866,164156,-244057,0,-41,-42,0,40423
1749330328.000707924,164115,-244099,0,-41,-42,0,40798
1749330328.053607459,164074,-244141,0,-41,-42,0,40395
1749330328.111721110,163993,-244225,0,-41,-42,0,40407
1749330328.167668977,163952,-244267,0,-41,-42,0,41090
1749330328.223751400,163911,-244309,0,-41,-42,0,40373
1749330328.279646990,163829,-244393,0,-41,-42,0,40374
1749330328.332695487,163788,-244435,0,-40,-41,0,40379
1749330328.384808859,163714,-244510,0,-22,-22,0,40381
1749330328.442733845,163692,-244532,0,-14,-12,0,40385
1749330328.496708558,163678,-244544,0,-6,-3,0,40386
1749330328.553718382,163677,-244565,0,27,-45,0,40392
1749330328.610619152,163704,-244610,0,52,-66,0,40383
1749330328.665868209,163756,-244676,0,72,-83,0,40391
1749330328.723647343,163920,-244858,0,102,-105,0,40417
1749330328.774738574,164022,-244963,0,111,-114,0,40390
1749330328.829635985,164133,-245077,0,118,-119,0,40383
1749330328.886791012,164379,-245322,0,128,-127,0,40411
1749330328.939681639,164507,-245449,0,130,-129,0,40406
1749330328.994760790,164771,-245708,0,135,-133,0,40408
1749330329.052650850,164906,-245841,0,140,-135,0,41157
1749330329.106780210,165046,-245976,0,138,-134,0,40395
1749330329.162665949,165322,-246244,0,142,-139,0,41437
1749330329.211773432,165464,-246383,0,139,-136,0,40374
1749330329.268673220,165603,-246519,0,140,-135,0,40392
1749330329.322646618,165882,-246790,0,140,-137,0,40416
1749330329.375781521,166022,-246927,0,142,-138,0,41027
1749330329.428689574,166164,-247065,0,140,-137,0,40390
1749330329.483807410,166445,-247338,0,145,-141,0,41592
1749330329.541695044,166590,-247479,0,141,-137,0,40393
1749330329.591773169,166731,-247616,0,141,-137,0,40394
1749330329.648660346,167014,-247890,0,143,-139,0,41049
1749330329.703792978,167157,-248029,0,141,-137,0,40387
1749330329.761710223,167298,-248166,0,142,-137,0,40386
1749330329.812835175,167582,-248440,0,143,-139,0,41026
1749330329.863723332,167725,-248579,0,142,-137,0,40390
1749330329.916799903,167867,-248716,0,142,-137,0,40383
1749330329.961693726,168150,-248990,0,142,-137,0,40397
1749330330.013788080,168292,-249127,0,143,-138,0,40700
1749330330.068692306,168435,-249265,0,141,-138,0,40409
1749330330.119841165,168576,-249403,0,141,-137,0,40381
1749330330.170799989,168858,-249678,0,143,-139,0,40922
1749330330.223802097,169001,-249817,0,141,-138,0,40377
1749330330.277719662,169142,-249955,0,141,-138,0,40415
1749330330.338733314,169424,-250231,0,141,-138,0,40422
1749330330.392691509,169565,-250369,0,143,-140,0,41034
1749330330.445795746,169708,-250509,0,142,-138,0,40376
1749330330.496748125,169991,-250785,0,141,-138,0,40403
1749330330.553787505,170132,-250923,0,143,-139,0,40669
1749330330.604804606,170275,-251062,0,141,-138,0,40392
1749330330.661952244,170558,-251339,0,142,-138,0,40405
1749330330.716720101,170700,-251477,0,142,-138,0,40378
1749330330.766787189,170842,-251615,0,143,-139,0,40659
1749330330.821711526,171127,-251892,0,142,-137,0,40422
1749330330.874842485,171269,-252029,0,142,-138,0,40387
1749330330.933814075,171411,-252167,0,143,-139,0,40840
1749330330.990877418,171696,-252444,0,142,-139,0,40400
1749330331.046774267,171838,-252583,0,142,-138,0,40396
1749330331.102926134,172122,-252859,0,142,-139,0,40658
1749330331.159775756,172264,-252998,0,141,-139,0,40396
1749330331.215843197,172405,-253137,0,141,-138,0,40400
1749330331.272741244,172688,-253413,0,143,-141,0,41120
1749330331.323931455,172831,-253554,0,141,-138,0,40382
1749330331.376805879,172972,-253692,0,142,-139,0,40404
1749330331.428878084,173255,-253969,0,141,-139,0,40411
1749330331.485808298,173396,-254108,0,143,-139,0,40741
1749330331.538900257,173539,-254247,0,141,-139,0,40392
1749330331.594811107,173822,-254524,0,141,-139,0,40394
1749330331.652863092,173963,-254663,0,144,-140,0,40928
1749330331.706763787,174107,-254803,0,142,-139,0,40384
1749330331.766861000,174391,-255081,0,142,-139,0,40421
1749330331.820746584,174533,-255220,0,142,-139,0,40382
1749330331.874911777,174819,-255500,0,142,-138,0,40398
1749330331.926771373,174961,-255638,0,142,-139,0,40377
1749330331.980886122,175103,-255777,0,143,-138,0,40406
1749330332.031899131,175388,-256054,0,142,-138,0,40413
1749330332.091902715,175530,-256192,0,143,-139,0,40373
1749330332.147785213,175673,-256331,0,141,-138,0,40405
1749330332.200904505,175956,-256608,0,144,-140,0,41024
1749330332.258843472,176100,-256748,0,141,-138,0,40393
1749330332.308865968,176241,-256886,0,141,-138,0,40389
1749330332.362764015,176524,-257163,0,142,-138,0,40657
1749330332.415890844,176666,-257301,0,141,-138,0,40381
1749330332.473806997,176807,-257439,0,141,-139,0,40402
1749330332.532932790,177090,-257715,0,141,-138,0,40400
1749330332.585844139,177231,-257853,0,143,-140,0,40692
1749330332.634885289,177516,-258131,0,142,-139,0,40415
1749330332.688979816,177658,-258270,0,142,-139,0,40369
1749330332.740981967,177800,-258409,0,144,-141,0,41014
1749330332.796918353,177944,-258550,0,142,-139,0,40400
1749330332.848857764,178228,-258828,0,142,-139,0,40415
1749330332.902952013,178370,-258967,0,142,-140,0,40378
1749330332.960773203,178512,-259107,0,143,-140,0,40598
1749330333.016910273,178797,-259387,0,143,-139,0,40407
1749330333.068882332,178940,-259526,0,142,-140,0,40397
1749330333.121846273,179082,-259666,0,145,-142,0,41254
1749330333.175942096,179369,-259948,0,142,-139,0,40412
1749330333.229152369,179511,-260087,0,142,-140,0,40393
1749330333.282968732,179653,-260227,0,146,-143,0,41746
1749330333.336916685,179941,-260510,0,141,-139,0,40399
1749330333.392954682,180082,-260649,0,142,-139,0,40392
1749330333.445998938,180224,-260788,0,142,-140,0,40607
1749330333.499989281,180507,-261067,0,142,-140,0,40401
1749330333.549916055,180649,-261207,0,120,-118,0,40371
1749330333.608951071,180769,-261325,0,90,-88,0,40390
1749330333.667981846,180924,-261475,0,45,-41,0,40417
1749330333.726039405,180969,-261516,0,30,-26,0,40379
1749330333.780903520,181009,-261567,0,-1,-27,0,40614
1749330333.834994269,181008,-261594,0,-1,-30,0,40381
1749330333.887911118,181007,-261624,0,-1,-34,0,40396
1749330333.943986837,180997,-261693,0,-20,-37,0,40407
1749330333.994933124,180977,-261730,0,-25,-38,0,40762
1749330334.051039491,180952,-261768,0,-30,-39,0,40381
1749330334.106923248,180890,-261847,0,-34,-40,0,40383
1749330334.160003874,180856,-261887,0,-37,-41,0,41017
1749330334.213876736,180819,-261928,0,-37,-41,0,40391
1749330334.268943572,180744,-262010,0,-38,-42,0,40395
1749330334.320925074,180706,-262052,0,-39,-41,0,40373
1749330334.376072484,180667,-262093,0,-39,-41,0,40644
1749330334.430904525,180588,-262176,0,-39,-41,0,40397
1749330334.482982453,180549,-262217,0,-40,-41,0,40385
1749330334.535980283,180509,-262258,0,-40,-42,0,41032
1749330334.585980242,180429,-262342,0,-40,-41,0,40394
1749330334.638872221,180389,-262383,0,-40,-41,0,40372
1749330334.692032513,180349,-262424,0,-40,-41,0,40407
1749330334.746919850,180269,-262507,0,-40,-42,0,40413
1749330334.805007168,180229,-262549,0,-40,-41,0,40370
1749330334.858970937,180189,-262590,0,-41,-43,0,41555
1749330334.911055384,180108,-262674,0,-40,-41,0,40390
1749330334.964012510,180068,-262715,0,-40,-42,0,40407
1749330335.017056655,180028,-262757,0,-40,-41,0,40393
1749330335.072908523,179988,-262798,0,-41,-42,0,41143
1749330335.130033662,179907,-262882,0,-40,-41,0,40389
1749330335.183952542,179867,-262923,0,-42,-43,0,41537
1749330335.234030537,179785,-263007,0,-40,-41,0,40398
1749330335.284930769,179745,-263048,0,-40,-42,0,40383
1749330335.343008939,179705,-263090,0,-40,-41,0,40394
1749330335.395943250,179624,-263173,0,-40,-42,0,40386
1749330335.449985000,179584,-263215,0,-41,-41,0,40370
1749330335.503037589,179543,-263256,0,-41,-42,0,40401
1749330335.559034586,179502,-263298,0,-41,-42,0,41022
1749330335.612976633,179420,-263381,0,-41,-42,0,40375
1749330335.668061857,179379,-263423,0,-41,-42,0,40389
1749330335.721968682,179297,-263506,0,-41,-42,0,40564
1749330335.781009809,179256,-263548,0,-40,-42,0,40384
1749330335.832980219,179216,-263590,0,-41,-42,0,40391
1749330335.886086326,179134,-263673,0,-41,-43,0,41045
1749330335.939031046,179093,-263716,0,-41,-41,0,40372
1749330335.996056537,179052,-263757,0,-41,-42,0,40393
1749330336.050974855,178970,-263841,0,-40,-42,0,40397
1749330336.106119413,178930,-263883,0,-42,-43,0,41086
1749330336.159967701,178888,-263926,0,-41,-41,0,40371
1749330336.218087222,178806,-264009,0,-41,-42,0,40387
1749330336.264964219,178765,-264051,0,-41,-43,0,40887
1749330336.331085488,178683,-264135,0,-41,-43,0,40395
1749330336.387009227,178642,-264178,0,-41,-42,0,40397
1749330336.440155333,178601,-264220,0,-42,-43,0,41428
1749330336.494060417,178518,-264305,0,-41,-42,0,40398
1749330336.548123037,178477,-264347,0,-41,-42,0,40373
1749330336.602084121,178436,-264389,0,-41,-42,0,41074
1749330336.654138253,178354,-264473,0,-41,-41,0,40397
1749330336.711018004,178313,-264514,0,-41,-42,0,40380
1749330336.766081618,178272,-264556,0,-41,-42,0,40402
1749330336.818028898,178189,-264640,0,-41,-42,0,40390
1749330336.874208228,178148,-264682,0,-41,-42,0,40374
1749330336.926023880,178107,-264724,0,-41,-42,0,40409
1749330336.978086678,178025,-264808,0,-34,-34,0,40378
1749330337.033079922,177991,-264842,0,-22,-22,0,40365
1749330337.090117154,177969,-264864,0,-14,-12,0,40409
1749330337.144031071,177950,-264881,0,7,-20,0,40798
1749330337.193216683,177957,-264901,0,28,-44,0,40387
1749330337.248032132,177985,-264945,0,52,-65,0,40380
1749330337.300056375,178110,-265092,0,91,-95,0,40921
1749330337.356113038,178201,-265187,0,102,-104,0,40372
1749330337.414105246,178303,-265291,0,111,-112,0,40408
1749330337.469167952,178533,-265519,0,124,-121,0,40424
1749330337.520197072,178657,-265640,0,131,-126,0,41144
1749330337.567226197,178788,-265766,0,132,-127,0,40392
1749330337.623067862,178920,-265893,0,134,-129,0,40413
1749330337.674200351,179194,-266156,0,138,-131,0,40409
1749330337.727210848,179332,-266287,0,138,-132,0,40390
1749330337.780075864,179470,-266419,0,139,-132,0,40399
1749330337.837133169,179748,-266684,0,141,-135,0,40815
1749330337.891064068,179889,-266819,0,140,-134,0,40395
1749330337.944261452,180029,-266953,0,140,-134,0,40392
1749330338.002092160,180309,-267221,0,141,-136,0,40774
1749330338.052285748,180450,-267357,0,141,-135,0,40378
1749330338.106116443,180591,-267492,0,140,-134,0,40400
1749330338.162320754,180871,-267761,0,141,-135,0,40403
1749330338.216130875,181012,-267896,0,142,-136,0,40715
1749330338.272213835,181154,-268032,0,141,-136,0,40382
1749330338.328114277,181436,-268303,0,142,-136,0,40404
1749330338.380229798,181578,-268439,0,143,-137,0,40998
1749330338.433127073,181863,-268712,0,142,-135,0,40406
1749330338.490161879,182005,-268847,0,142,-136,0,40413
1749330338.545091623,182147,-268983,0,146,-139,0,41611
1749330338.602201354,182435,-269258,0,142,-135,0,40413
1749330338.657067673,182577,-269393,0,142,-136,0,40381
1749330338.714216737,182719,-269529,0,144,-137,0,40969
1749330338.774088581,183005,-269802,0,141,-136,0,40402
1749330338.825281293,183146,-269938,0,142,-136,0,40399
1749330338.878167216,183288,-270074,0,142,-136,0,40396
1749330338.935230596,183574,-270349,0,142,-136,0,40399
1749330338.994276815,183716,-270485,0,141,-136,0,40389
1749330339.049327114,184002,-270762,0,142,-136,0,40388
1749330339.108161002,184144,-270898,0,140,-137,0,40395
1749330339.164266758,184284,-271035,0,142,-136,0,40400
1749330339.218310452,184567,-271308,0,143,-139,0,41053
1749330339.272275202,184710,-271447,0,142,-137,0,40383
1749330339.326214600,184852,-271584,0,142,-136,0,40409
1749330339.379257152,185140,-271861,0,142,-136,0,40408
1749330339.435123020,185282,-271997,0,142,-137,0,40386
1749330339.489231251,185424,-272134,0,142,-136,0,40390
1749330339.540189445,185712,-272411,0,142,-137,0,40388
1749330339.596221701,185854,-272548,0,142,-137,0,40392
1749330339.649192365,185996,-272685,0,142,-137,0,40394
1749330339.706326522,186282,-272962,0,142,-137,0,40410
1749330339.759148205,186424,-273099,0,142,-137,0,40379
1749330339.813280639,186566,-273236,0,143,-138,0,40394
1749330339.866159229,186851,-273511,0,142,-139,0,40629
1749330339.925246800,186993,-273650,0,142,-137,0,40394
1749330339.980205026,187277,-273925,0,142,-137,0,40420
1749330340.034309479,187419,-274062,0,144,-141,0,41229
1749330340.087197828,187563,-274203,0,142,-138,0,40394
1749330340.140320620,187846,-274479,0,142,-137,0,40403
1749330340.188193166,187988,-274616,0,141,-138,0,40362
1749330340.245289860,188129,-274754,0,143,-139,0,40986
1749330340.305148686,188272,-274893,0,142,-138,0,40386
1749330340.361305368,188556,-275169,0,141,-138,0,40393
1749330340.409118025,188697,-275307,0,143,-139,0,40621
1749330340.468300559,188840,-275446,0,142,-138,0,40392
1749330340.522207550,189124,-275722,0,142,-138,0,40407
1749330340.577302645,189266,-275860,0,142,-138,0,40379
1749330340.626123926,189551,-276137,0,143,-138,0,40397
1749330340.682278107,189694,-276275,0,142,-139,0,40383
1749330340.731136740,189836,-276414,0,142,-138,0,40408
1749330340.782292414,189978,-276552,0,144,-140,0,40932
1749330340.836210628,190265,-276831,0,142,-138,0,40399
1749330340.889357531,190407,-276969,0,142,-138,0,40389
1749330340.947261757,190549,-277107,0,142,-139,0,40406
1749330341.006315384,190834,-277385,0,142,-139,0,40426
1749330341.057214505,190976,-277524,0,142,-138,0,40384
1749330341.112317415,191118,-277662,0,142,-139,0,40395
1749330341.166283461,191406,-277944,0,142,-139,0,40404
1749330341.217363062,191548,-278083,0,141,-139,0,40411
1749330341.267162467,191689,-278222,0,142,-138,0,40394
1749330341.324318642,191976,-278503,0,142,-138,0,40399
1749330341.375269818,192118,-278641,0,142,-139,0,40387
1749330341.431349777,192260,-278780,0,141,-139,0,40413
1749330341.488217510,192545,-279059,0,142,-140,0,40399
1749330341.546378161,192687,-279199,0,142,-139,0,40395
1749330341.606254709,192971,-279477,0,142,-140,0,40412
1749330341.660359032,193113,-279617,0,146,-142,0,41183
1749330341.711291819,193259,-279759,0,142,-140,0,40391
1749330341.770326335,193543,-280038,0,147,-143,0,41457
1749330341.823262073,193690,-280181,0,142,-140,0,40394
1749330341.878360612,193832,-280321,0,142,-139,0,40388
1749330341.929308380,194117,-280600,0,142,-139,0,40404
1749330341.986383038,194259,-280739,0,145,-141,0,41087
1749330342.036211757,194404,-280880,0,142,-139,0,40402
1749330342.094403574,194688,-281158,0,144,-140,0,40909
1749330342.150270350,194832,-281298,0,142,-139,0,40382
1749330342.207389748,194974,-281437,0,141,-139,0,40388
1749330342.264355573,195236,-281693,0,91,-88,0,40380
1749330342.321358601,195327,-281781,0,64,-61,0,40750
1749330342.374280376,195436,-281883,0,21,-35,0,40401
1749330342.431379107,195457,-281918,0,1,-35,0,40384
1749330342.486446406,195458,-281953,0,-3,-37,0,41038
1749330342.540440952,195455,-282028,0,-5,-39,0,40387
1749330342.593346616,195450,-282067,0,-17,-40,0,40373
1749330342.651434119,195433,-282107,0,-23,-40,0,40389
1749330342.710431654,195382,-282188,0,-31,-41,0,40401
1749330342.768384084,195351,-282229,0,-34,-41,0,40382
1749330342.821424580,195283,-282311,0,-37,-42,0,40953
1749330342.877421411,195246,-282353,0,-37,-41,0,40355
1749330342.931380846,195209,-282394,0,-38,-42,0,40387
1749330342.985448540,195132,-282477,0,-39,-42,0,40397
1749330343.037317562,195093,-282519,0,-40,-42,0,41107
1749330343.094412312,195053,-282561,0,-39,-42,0,40373
1749330343.152336372,194974,-282645,0,-39,-41,0,40388
1749330343.207423319,194935,-282686,0,-40,-42,0,40589
1749330343.267356551,194855,-282770,0,-40,-42,0,40394
1749330343.324468709,194815,-282812,0,-40,-42,0,40388
1749330343.375323607,194775,-282854,0,-40,-42,0,40384
1749330343.427418128,194695,-282939,0,-40,-42,0,40407
1749330343.482331557,194655,-282981,0,-41,-42,0,40381
1749330343.534438985,194614,-283023,0,-41,-43,0,41624
1749330343.586330322,194532,-283108,0,-41,-42,0,40396
1749330343.638446657,194491,-283150,0,-40,-42,0,40384
1749330343.691396784,194451,-283192,0,-41,-41,0,40395
1749330343.742467884,194410,-283233,0,-41,-43,0,40772
1749330343.797361573,194328,-283317,0,-41,-42,0,40398
1749330343.847423680,194287,-283359,0,-41,-42,0,40384
1749330343.900401696,194246,-283401,0,-41,-43,0,40919
1749330343.955450661,194164,-283485,0,-40,-42,0,40381
1749330344.008379529,194124,-283527,0,-41,-42,0,40378
1749330344.062492963,194083,-283569,0,-41,-43,0,40399
1749330344.118400924,194001,-283654,0,-41,-42,0,40407
1749330344.176471964,193960,-283696,0,-41,-42,0,40374
1749330344.235346833,193919,-283738,0,-40,-42,0,40391
1749330344.287484150,193837,-283822,0,-41,-42,0,40393
1749330344.343411406,193796,-283864,0,-41,-42,0,40391
1749330344.397491526,193714,-283948,0,-40,-42,0,40396
1749330344.449386233,193674,-283990,0,-42,-42,0,41042
1749330344.505475045,193632,-284032,0,-41,-42,0,40394
1749330344.560374919,193550,-284116,0,-41,-42,0,40393
1749330344.615561495,193509,-284158,0,-41,-42,0,40655
1749330344.670405758,193468,-284200,0,-40,-42,0,40400
1749330344.727462416,193387,-284284,0,-41,-42,0,40404
1749330344.783379561,193346,-284326,0,-41,-42,0,40370
1749330344.833441872,193305,-284368,0,-41,-42,0,41046
1749330344.885365282,193223,-284452,0,-41,-42,0,40382
1749330344.935539426,193182,-284494,0,-42,-43,0,41630
1749330344.986421991,193140,-284537,0,-41,-42,0,40385
1749330345.043476574,193099,-284579,0,-41,-42,0,40403
1749330345.094491157,193017,-284663,0,-41,-41,0,40392
1749330345.151520055,192976,-284704,0,-41,-43,0,40718
1749330345.204448052,192935,-284747,0,-41,-42,0,40381
1749330345.260604659,192853,-284830,0,-41,-42,0,40401
1749330345.315489626,192812,-284872,0,-41,-42,0,41004
1749330345.364515925,192730,-284956,0,-41,-42,0,40397
1749330345.421454805,192689,-284998,0,-40,-42,0,40359
1749330345.477411210,192649,-285040,0,-41,-41,0,40397
1749330345.535582083,192567,-285124,0,-41,-41,0,40404
1749330345.584460141,192526,-285165,0,-33,-34,0,40363
1749330345.643519620,192493,-285199,0,-22,-22,0,40379
1749330345.697464389,192458,-285233,0,-5,-2,0,40385
1749330345.752545058,192453,-285235,0,0,0,0,40386
1749330345.804478894,192453,-285235,0,0,0,0,40393
1749330345.854552112,192465,-285248,0,31,-41,0,40886
1749330345.908487066,192496,-285289,0,56,-61,0,40380
1749330345.964536137,192552,-285350,0,75,-80,0,40416
1749330346.014402486,192719,-285522,0,105,-105,0,40811
1749330346.066554006,192824,-285627,0,113,-111,0,40383
1749330346.117475608,192937,-285738,0,120,-118,0,40393
1749330346.176546383,193057,-285856,0,125,-121,0,40401
1749330346.234536368,193312,-286103,0,134,-130,0,41060
1749330346.290563569,193446,-286233,0,136,-129,0,40370
1749330346.343497214,193718,-286494,0,142,-136,0,41537
1749330346.394642481,193860,-286630,0,139,-133,0,40382
1749330346.447457701,193999,-286763,0,140,-133,0,40409
1749330346.506602939,194139,-286896,0,140,-134,0,40384
1749330346.559598139,194419,-287165,0,142,-136,0,40753
1749330346.617585161,194561,-287301,0,141,-135,0,40371
1749330346.674502227,194843,-287571,0,141,-136,0,40399
1749330346.725660994,194984,-287707,0,143,-138,0,41015
1749330346.777523831,195127,-287845,0,141,-136,0,40380
1749330346.831574154,195409,-288116,0,141,-136,0,40416
1749330346.883524009,195550,-288252,0,141,-135,0,40373
1749330346.945569711,195691,-288387,0,143,-137,0,40708
1749330346.998553078,195975,-288660,0,141,-136,0,40398
1749330347.048549222,196116,-288796,0,142,-136,0,40396
1749330347.102625972,196258,-288932,0,143,-137,0,40895
1749330347.151590974,196543,-289205,0,142,-136,0,40408
1749330347.204532712,196685,-289341,0,142,-136,0,40385
1749330347.255622905,196827,-289477,0,142,-137,0,40408
1749330347.306764487,196969,-289614,0,145,-138,0,41048
1749330347.361547677,197256,-289888,0,143,-137,0,40408
1749330347.417679691,197399,-290025,0,146,-141,0,41649
1749330347.471508128,197545,-290166,0,143,-137,0,40406
1749330347.526625815,197830,-290440,0,142,-137,0,40401
1749330347.580607973,197972,-290577,0,143,-138,0,40391
1749330347.633669191,198115,-290715,0,143,-138,0,40679
1749330347.687681700,198400,-290990,0,143,-137,0,40400
1749330347.743604087,198543,-291127,0,141,-137,0,40385
1749330347.796520769,198684,-291264,0,144,-140,0,40932
1749330347.850641444,198970,-291541,0,142,-137,0,40418
1749330347.907627787,199112,-291678,0,141,-138,0,40385
1749330347.959659067,199395,-291954,0,143,-138,0,40672
1749330348.010569058,199538,-292092,0,141,-137,0,40370
1749330348.062633986,199679,-292229,0,143,-138,0,40406
1749330348.114668266,199822,-292367,0,142,-136,0,40379
1749330348.165661460,200108,-292642,0,142,-137,0,40399
1749330348.216685895,200250,-292779,0,143,-138,0,40380
1749330348.269668614,200393,-292917,0,142,-138,0,40408
1749330348.323613827,200535,-293055,0,142,-138,0,40393
1749330348.378661682,200822,-293332,0,143,-138,0,40398
1749330348.430600092,200965,-293470,0,142,-138,0,40380
1749330348.486682274,201107,-293608,0,143,-138,0,40401
1749330348.543938078,201395,-293886,0,143,-139,0,40413
1749330348.603708682,201538,-294025,0,142,-138,0,40374
1749330348.658597649,201823,-294301,0,142,-139,0,40415
1749330348.710702744,201965,-294440,0,145,-139,0,40973
1749330348.766593056,202110,-294579,0,142,-138,0,40397
1749330348.819714904,202394,-294855,0,147,-143,0,41618
1749330348.872605327,202541,-294998,0,142,-138,0,40402
1749330348.925843823,202683,-295136,0,142,-138,0,40396
1749330348.982625723,202967,-295413,0,142,-138,0,40402
1749330349.038816681,203109,-295551,0,143,-140,0,40665
1749330349.087634148,203252,-295691,0,143,-138,0,40410
1749330349.139723039,203536,-295968,0,143,-139,0,40417
1749330349.195540889,203679,-296107,0,144,-141,0,40992
1749330349.250687002,203823,-296248,0,142,-138,0,40393
1749330349.307642123,204108,-296526,0,143,-138,0,40407
1749330349.358697539,204251,-296664,0,147,-143,0,41619
1749330349.417592685,204398,-296807,0,142,-139,0,40387
1749330349.476710701,204684,-297085,0,143,-138,0,40415
1749330349.535620755,204827,-297223,0,144,-141,0,41007
1749330349.593708721,205114,-297503,0,143,-138,0,40403
1749330349.643567625,205257,-297641,0,142,-139,0,40372
1749330349.700727986,205399,-297780,0,148,-143,0,41641
1749330349.751761846,205689,-298062,0,143,-139,0,40418
1749330349.803752756,205832,-298201,0,142,-138,0,40382
1749330349.857643451,205974,-298339,0,145,-141,0,40995
1749330349.918749436,206261,-298618,0,142,-138,0,40395
1749330349.972715908,206403,-298756,0,142,-139,0,40389
1749330350.026767084,206545,-298895,0,142,-138,0,40388
1749330350.082645323,206832,-299174,0,142,-138,0,40406
1749330350.133889182,206974,-299312,0,142,-138,0,40393
1749330350.188636927,207116,-299450,0,146,-142,0,41555
1749330350.242755972,207405,-299731,0,142,-139,0,40423
1749330350.294656587,207547,-299870,0,143,-138,0,40388
1749330350.352705331,207690,-300008,0,142,-139,0,40382
1749330350.407636001,207976,-300287,0,143,-139,0,40401
1749330350.459707059,208119,-300426,0,143,-139,0,40414
1749330350.515778407,208262,-300565,0,142,-139,0,40387
1749330350.571722516,208549,-300845,0,143,-139,0,40411
1749330350.624650717,208692,-300984,0,143,-139,0,40383
1749330350.676769441,208835,-301123,0,143,-138,0,40395
1749330350.736659878,209121,-301400,0,143,-139,0,40659
1749330350.787770015,209264,-301539,0,143,-139,0,40388
1749330350.844624007,209407,-301678,0,142,-139,0,40404
1749330350.897892614,209671,-301935,0,92,-88,0,40963
1749330350.953836555,209763,-302023,0,64,-61,0,40358
1749330351.005845614,209872,-302124,0,30,-26,0,40394
1749330351.059750420,209902,-302150,0,10,-24,0,40369
1749330351.118788343,209912,-302174,0,0,-26,0,40717
1749330351.173840735,209911,-302230,0,-2,-32,0,40401
1749330351.228800664,209909,-302262,0,-12,-34,0,40374
1749330351.279834173,209897,-302296,0,-20,-36,0,40976
1749330351.336846886,209852,-302369,0,-30,-38,0,40397
1749330351.396719286,209822,-302407,0,-32,-39,0,40387
1749330351.450830924,209756,-302485,0,-36,-40,0,41010
1749330351.500795679,209720,-302525,0,-36,-41,0,40356
1749330351.557811689,209684,-302566,0,-38,-40,0,40390
1749330351.613706909,209608,-302646,0,-40,-41,0,40706
1749330351.667861047,209568,-302687,0,-40,-41,0,40381
1749330351.720727266,209528,-302728,0,-40,-41,0,40395
1749330351.780754610,209448,-302810,0,-41,-41,0,40403
1749330351.834702416,209407,-302851,0,-41,-43,0,41154
1749330351.887820837,209366,-302894,0,-41,-41,0,40381
1749330351.947732107,209284,-302976,0,-41,-43,0,41541
1749330352.001836264,209243,-303019,0,-41,-41,0,40386
1749330352.054705650,209202,-303060,0,-41,-42,0,40376
1749330352.107867016,209120,-303143,0,-41,-42,0,40384
1749330352.159770446,209079,-303185,0,-41,-42,0,40812
1749330352.212854960,209038,-303227,0,-41,-41,0,40383
1749330352.268741217,208956,-303310,0,-41,-41,0,40406
1749330352.322878096,208915,-303351,0,-41,-43,0,41053
1749330352.372670408,208874,-303394,0,-41,-41,0,40373
1749330352.424846725,208792,-303477,0,-41,-41,0,40390
1749330352.477731759,208751,-303518,0,-42,-43,0,41617
1749330352.538818355,208709,-303561,0,-41,-42,0,40389
1749330352.596806044,208627,-303644,0,-41,-42,0,40403
1749330352.656950516,208586,-303686,0,-42,-42,0,41009
1749330352.706892291,208503,-303770,0,-40,-42,0,40392
1749330352.756967694,208463,-303812,0,-41,-41,0,40367
1749330352.812775470,208422,-303853,0,-41,-42,0,40405
1749330352.869844942,208381,-303895,0,-41,-42,0,40990
1749330352.924879927,208299,-303979,0,-41,-42,0,40398
1749330352.976976151,208258,-304021,0,-41,-41,0,40370
1749330353.035931334,208176,-304104,0,-41,-42,0,40387
1749330353.090877652,208135,-304146,0,-41,-42,0,40380
1749330353.145788952,208094,-304188,0,-41,-41,0,40394
1749330353.203872381,208012,-304271,0,-41,-41,0,40744
1749330353.258785774,207971,-304312,0,-41,-42,0,40370
1749330353.311900659,207930,-304354,0,-41,-41,0,40397
1749330353.366779422,207848,-304437,0,-42,-42,0,41170
1749330353.421879684,207806,-304479,0,-41,-41,0,40389
1749330353.475810786,207765,-304520,0,-40,-40,0,40377
1749330353.532909536,207684,-304601,0,-41,-41,0,40397
1749330353.588797237,207643,-304642,0,-41,-42,0,40730
1749330353.641920400,207561,-304725,0,-41,-41,0,40401
1749330353.694959118,207520,-304766,0,-40,-40,0,40393
1749330353.750939301,207480,-304806,0,-41,-42,0,40957
1749330353.801888884,207398,-304888,0,-41,-41,0,40404
1749330353.857898455,207357,-304929,0,-40,-41,0,40359
1749330353.909834865,207317,-304970,0,-41,-40,0,40402
1749330353.965936195,207236,-305051,0,-40,-40,0,40404
1749330354.021838989,207196,-305091,0,-41,-41,0,40373
1749330354.079932270,207155,-305132,0,-40,-40,0,40373
1749330354.134832848,207074,-305213,0,-41,-40,0,40386
1749330354.192912333,207033,-305253,0,-40,-41,0,40383
1749330354.249801213,206952,-305334,0,-33,-31,0,40381
1749330354.300964962,206919,-305365,0,-23,-21,0,41774
1749330354.354900249,206896,-305386,0,-12,-10,0,40385
1749330354.411905611,206878,-305397,0,0,0,0,40382
1749330354.463869169,206878,-305397,0,9,-17,0,41065
1749330354.514957122,206887,-305414,0,30,-40,0,40400
1749330354.567867582,206917,-305454,0,53,-60,0,40397
1749330354.625922252,207044,-305592,0,94,-94,0,41656
1749330354.677911217,207138,-305686,0,103,-102,0,40377
1749330354.729992960,207241,-305788,0,112,-109,0,40395
1749330354.780907062,207472,-306013,0,128,-122,0,41022
1749330354.839949800,207600,-306135,0,129,-124,0,40385
1749330354.892854668,207729,-306259,0,132,-126,0,40386
1749330354.947964930,207996,-306514,0,140,-134,0,41645
1749330354.997793427,208136,-306648,0,138,-131,0,40390
1749330355.052020472,208274,-306779,0,139,-132,0,40378
1749330355.107863877,208556,-307047,0,140,-134,0,40407
1749330355.158038798,208696,-307181,0,141,-133,0,40384
1749330355.211877216,208837,-307314,0,141,-134,0,40399
1749330355.266975977,209123,-307586,0,142,-134,0,40392
1749330355.317971949,209265,-307720,0,141,-135,0,40382
1749330355.368995735,209406,-307855,0,141,-134,0,40397
1749330355.420947849,209547,-307989,0,144,-137,0,41053
1749330355.473971068,209832,-308261,0,141,-135,0,40388
1749330355.526932954,209973,-308396,0,142,-135,0,40401
1749330355.582967655,210115,-308531,0,141,-135,0,40385
1749330355.639852646,210400,-308804,0,141,-135,0,40405
1749330355.691038358,210541,-308939,0,141,-135,0,40398
1749330355.747861109,210682,-309074,0,146,-139,0,41596
1749330355.803965569,210969,-309348,0,142,-135,0,40423
1749330355.855897942,211111,-309483,0,141,-135,0,40376
1749330355.912987618,211252,-309618,0,142,-134,0,40415
1749330355.966917350,211538,-309890,0,142,-135,0,40402
1749330356.025004760,211680,-310025,0,143,-135,0,40391
1749330356.077919776,211969,-310300,0,142,-135,0,40410
1749330356.133128167,212111,-310435,0,143,-134,0,40379
1749330356.190912690,212254,-310569,0,142,-135,0,40401
1749330356.246036322,212538,-310840,0,144,-136,0,40714
1749330356.294946529,212682,-310976,0,142,-137,0,40391
1749330356.349034870,212824,-311113,0,143,-136,0,40388
1749330356.407932276,213109,-311385,0,144,-138,0,40905
1749330356.458089605,213253,-311523,0,142,-137,0,40384
1749330356.514979837,213395,-311660,0,142,-136,0,40394
1749330356.568072463,213679,-311933,0,142,-137,0,40396
1749330356.617961052,213821,-312070,0,143,-138,0,40716
1749330356.685023316,214106,-312345,0,142,-137,0,40425
1749330356.737988295,214248,-312482,0,141,-137,0,40387
1749330356.791027643,214389,-312619,0,144,-140,0,40967
1749330356.842908535,214675,-312896,0,142,-138,0,40398
1749330356.897016303,214817,-313034,0,142,-137,0,40402
1749330356.949089416,214959,-313171,0,142,-138,0,40405
1749330357.005992612,215101,-313309,0,144,-139,0,40953
1749330357.062908733,215388,-313586,0,143,-137,0,40395
1749330357.119052248,215531,-313723,0,142,-137,0,40397
1749330357.173925733,215816,-313999,0,143,-138,0,40393
1749330357.228192093,215959,-314137,0,143,-137,0,40395
1749330357.281064090,216102,-314274,0,142,-138,0,40391
1749330357.332104654,216387,-314549,0,145,-141,0,41097
1749330357.382992534,216532,-314690,0,143,-138,0,40396
1749330357.433163621,216675,-314828,0,143,-138,0,40407
