ros_time,ticks_L,ticks_R,ticks_UNUSED,delta_ticks_L,delta_ticks_R,delta_ticks_UNUSED,delta_time_usec
1749338430.965261984,-1,0,0,0,0,0,41210
1749338430.965954424,-1,0,0,0,0,0,40287
1749338430.966386200,-1,0,0,0,0,0,40278
1749338431.006331141,-1,0,0,0,0,0,40295
1749338431.057380890,-1,0,0,0,0,0,40289
1749338431.110403925,-1,0,0,0,0,0,40279
1749338431.163498681,-1,0,0,0,0,0,40288
1749338431.216515938,-1,0,0,0,0,0,40288
1749338431.272315808,-1,0,0,0,0,0,40281
1749338431.325432398,-1,0,0,0,0,0,40290
1749338431.380437421,-1,0,0,0,0,0,41081
1749338431.439478977,-1,0,0,0,0,0,40286
1749338431.497386540,-1,0,0,0,0,0,40282
1749338431.551423420,-1,0,0,0,0,0,40290
1749338431.607432549,-1,0,0,0,0,0,40507
1749338431.662537294,-1,0,0,0,0,0,40293
1749338431.713512117,-1,0,0,0,0,0,40287
1749338431.765434232,-1,0,0,0,0,0,40295
1749338431.823449072,-1,0,0,0,0,0,40291
1749338431.876414329,-1,0,0,0,0,0,40281
1749338431.930519801,-1,0,0,0,0,0,40284
1749338431.983461484,-1,0,0,0,0,0,40295
1749338432.034309939,-1,0,0,0,0,0,40276
1749338432.089757311,-1,0,0,0,0,0,40291
1749338432.148486387,-1,0,0,0,0,0,41122
1749338432.204437702,-1,0,0,0,0,0,40276
1749338432.257458995,-1,0,0,0,0,0,40281
1749338432.317384565,-1,0,0,0,0,0,41132
1749338432.373427379,-1,0,0,0,0,0,40283
1749338432.431447385,-1,0,0,0,0,0,40291
1749338432.482466227,-1,0,0,0,0,0,40279
1749338432.535490261,-1,0,0,0,0,0,41147
1749338432.587419209,-1,0,0,0,0,0,40297
1749338432.640513521,-1,0,0,0,0,0,40271
1749338432.692350247,-1,0,0,0,0,0,41311
1749338432.745510133,-1,0,0,0,0,0,40281
1749338432.799359162,-1,0,0,0,0,0,40286
1749338432.850450504,-1,0,0,0,0,0,40287
1749338432.911351568,-1,0,0,0,0,0,41120
1749338432.968487209,-1,0,0,0,0,0,40291
1749338433.021444225,-1,0,0,0,0,0,40281
1749338433.079447602,-1,0,0,0,0,0,40289
1749338433.135461823,-1,0,0,80,-77,0,40420
1749338433.187491234,79,-77,0,147,-144,0,40435
1749338433.243426585,359,-353,0,106,-105,0,41454
1749338433.299587083,465,-458,0,108,-106,0,40401
1749338433.352385785,573,-564,0,124,-120,0,40423
1749338433.407501290,824,-810,0,121,-119,0,40419
1749338433.460534139,945,-929,0,119,-117,0,40418
1749338433.517512466,1064,-1046,0,122,-119,0,40413
1749338433.573390077,1309,-1287,0,124,-122,0,40639
1749338433.624625973,1433,-1409,0,122,-119,0,40393
1749338433.672358667,1555,-1528,0,122,-121,0,40425
1749338433.727468115,1799,-1770,0,124,-120,0,40447
1749338433.777507278,1923,-1890,0,122,-120,0,40407
1749338433.828587249,2045,-2010,0,122,-121,0,40419
1749338433.878398450,2167,-2131,0,122,-122,0,40427
1749338433.926495308,2411,-2372,0,123,-121,0,40443
1749338433.979386862,2534,-2493,0,121,-120,0,40396
1749338434.030389204,2655,-2613,0,122,-120,0,40421
1749338434.086545628,2777,-2733,0,122,-121,0,40441
1749338434.144447579,3020,-2974,0,125,-122,0,41395
1749338434.197550558,3145,-3096,0,121,-121,0,40403
1749338434.252610636,3388,-3337,0,120,-120,0,40437
1749338434.306556110,3508,-3457,0,125,-121,0,41345
1749338434.358423225,3633,-3578,0,120,-121,0,40425
1749338434.410556357,3874,-3818,0,121,-120,0,40432
1749338434.461423459,3995,-3938,0,122,-120,0,40880
1749338434.518492156,4117,-4058,0,120,-120,0,40419
1749338434.572438833,4237,-4178,0,120,-119,0,40430
1749338434.630581579,4477,-4416,0,121,-119,0,40439
1749338434.680463576,4598,-4535,0,121,-122,0,41159
1749338434.734633252,4719,-4657,0,120,-119,0,40423
1749338434.789489795,4963,-4898,0,119,-119,0,40424
1749338434.845499386,5082,-5017,0,119,-119,0,40400
1749338434.902421676,5322,-5255,0,119,-119,0,40426
1749338434.956506057,5441,-5374,0,120,-119,0,40655
1749338435.011483839,5561,-5493,0,119,-119,0,40408
1749338435.063559027,5799,-5731,0,120,-118,0,40435
1749338435.115416402,5919,-5849,0,122,-121,0,41176
1749338435.166533632,6041,-5970,0,118,-118,0,40440
1749338435.222493946,6159,-6088,0,119,-118,0,40414
1749338435.277556062,6397,-6325,0,123,-121,0,41336
1749338435.329420362,6520,-6446,0,118,-118,0,40405
1749338435.384712698,6638,-6564,0,118,-118,0,40428
1749338435.438527580,6875,-6800,0,120,-119,0,40895
1749338435.492617960,6995,-6919,0,119,-119,0,40404
1749338435.545466903,7114,-7038,0,118,-118,0,40405
1749338435.599633098,7350,-7273,0,123,-122,0,41653
1749338435.658626321,7473,-7395,0,117,-118,0,40411
1749338435.714647431,7709,-7631,0,118,-118,0,40423
1749338435.771485906,7827,-7749,0,119,-119,0,40891
1749338435.824599996,7946,-7868,0,117,-117,0,40414
1749338435.879487686,8181,-8103,0,118,-117,0,40422
1749338435.931612411,8299,-8220,0,118,-117,0,40412
1749338435.982498050,8417,-8337,0,119,-119,0,40906
1749338436.037660554,8653,-8574,0,117,-117,0,40430
1749338436.088497434,8770,-8691,0,122,-120,0,41607
1749338436.142625370,8892,-8811,0,117,-118,0,40412
1749338436.196533362,9009,-8929,0,117,-117,0,40429
1749338436.246597746,9244,-9164,0,121,-120,0,41611
1749338436.300488646,9365,-9284,0,117,-117,0,40394
1749338436.360562585,9482,-9401,0,118,-117,0,40400
1749338436.417515116,9717,-9635,0,118,-119,0,40916
1749338436.467627945,9835,-9754,0,118,-117,0,40409
1749338436.521590659,9953,-9871,0,117,-117,0,40418
1749338436.574751619,10187,-10104,0,121,-121,0,41603
1749338436.630544397,10308,-10225,0,117,-117,0,40398
1749338436.684630444,10425,-10342,0,116,-117,0,40422
1749338436.742676524,10659,-10575,0,119,-119,0,40970
1749338436.796672164,10778,-10694,0,116,-117,0,40424
1749338436.850598082,11011,-10928,0,118,-116,0,40430
1749338436.905693697,11129,-11044,0,119,-121,0,41569
1749338436.961561679,11248,-11165,0,116,-116,0,40406
1749338437.019667110,11482,-11397,0,116,-117,0,40422
1749338437.075531388,11598,-11514,0,118,-117,0,40920
1749338437.128723014,11716,-11631,0,117,-116,0,40411
1749338437.182535062,11949,-11864,0,116,-117,0,40440
1749338437.240685883,12065,-11981,0,116,-117,0,40403
1749338437.292557590,12181,-12098,0,119,-117,0,41194
1749338437.344696037,12417,-12331,0,116,-117,0,40419
1749338437.396624541,12533,-12448,0,119,-120,0,41301
1749338437.456681257,12652,-12568,0,116,-116,0,40406
1749338437.512622479,12884,-12800,0,117,-117,0,40422
1749338437.572644363,13001,-12917,0,120,-119,0,41615
1749338437.625632972,13237,-13153,0,116,-116,0,40433
1749338437.678659580,13353,-13269,0,117,-117,0,40414
1749338437.732538795,13470,-13386,0,118,-117,0,40899
1749338437.787706817,13704,-13619,0,116,-117,0,40428
1749338437.842773155,13820,-13736,0,116,-116,0,40397
1749338437.896746554,13936,-13852,0,120,-119,0,41605
1749338437.950604658,14172,-14088,0,116,-116,0,40432
1749338438.004707094,14288,-14204,0,117,-116,0,40400
1749338438.057586759,14405,-14320,0,117,-118,0,40907
1749338438.110814551,14637,-14553,0,117,-117,0,40419
1749338438.169681090,14754,-14670,0,26,-26,0,40386
1749338438.226705287,14780,-14696,0,-25,18,0,41564
1749338438.281632292,14749,-14675,0,3,0,0,40416
1749338438.334696530,14752,-14675,0,-13,-12,0,40402
1749338438.382715407,14739,-14687,0,-34,-24,0,40986
1749338438.432700625,14670,-14736,0,-30,-18,0,40418
1749338438.485611012,14640,-14754,0,-29,-18,0,40412
1749338438.540665813,14611,-14772,0,-32,-21,0,40416
1749338438.600855899,14579,-14793,0,-35,-22,0,41111
1749338438.652681533,14510,-14834,0,-33,-21,0,40416
1749338438.706753117,14477,-14855,0,-34,-22,0,41415
1749338438.759594708,14410,-14897,0,-34,-21,0,40428
1749338438.812743057,14376,-14918,0,-34,-20,0,40399
1749338438.865679147,14342,-14938,0,-33,-22,0,40408
1749338438.918760700,14309,-14960,0,-33,-20,0,40789
1749338438.974796106,14243,-15002,0,-34,-21,0,40430
1749338439.031785266,14209,-15023,0,-33,-20,0,40396
1749338439.088749575,14145,-15065,0,-33,-21,0,40433
1749338439.141922793,14112,-15086,0,-33,-22,0,40390
1749338439.194764384,14079,-15108,0,-32,-20,0,40412
1749338439.242729910,14015,-15151,0,-32,-20,0,40411
1749338439.297890247,13983,-15171,0,-31,-22,0,40402
1749338439.351691037,13952,-15193,0,-31,-22,0,40420
1749338439.407778906,13921,-15215,0,-33,-21,0,40956
1749338439.465690523,13858,-15258,0,-30,-20,0,40415
1749338439.521822596,13828,-15278,0,-32,-23,0,40409
1749338439.579651307,13765,-15322,0,-30,-22,0,40429
1749338439.634788792,13735,-15344,0,-30,-21,0,40394
1749338439.685656728,13705,-15365,0,-30,-22,0,40411
1749338439.740873639,13644,-15409,0,-29,-21,0,40414
1749338439.791701389,13615,-15430,0,-29,-22,0,40412
1749338439.846750968,13586,-15452,0,-30,-22,0,40405
1749338439.903718998,13526,-15495,0,-29,-22,0,40923
1749338439.958769762,13497,-15517,0,-28,-22,0,40393
1749338440.012712662,13469,-15539,0,-29,-22,0,40417
1749338440.068808105,13410,-15583,0,-29,-21,0,40429
1749338440.121689973,13381,-15604,0,-28,-23,0,40408
1749338440.172772537,13353,-15627,0,-28,-21,0,40407
1749338440.224713022,13296,-15670,0,-29,-23,0,40419
1749338440.283776985,13267,-15693,0,-27,-21,0,40413
1749338440.339673707,13240,-15714,0,-28,-22,0,40423
1749338440.392787797,13184,-15758,0,-28,-22,0,40432
1749338440.447686746,13156,-15780,0,-28,-22,0,40409
1749338440.500807280,13128,-15802,0,-26,-22,0,40416
1749338440.550658740,13073,-15846,0,-27,-22,0,40409
1749338440.604777416,13046,-15868,0,-26,-22,0,40412
1749338440.657900024,13020,-15890,0,-28,-23,0,40400
1749338440.712814770,12964,-15934,0,-26,-22,0,40419
1749338440.766708059,12938,-15956,0,-26,-23,0,40395
1749338440.817938770,12912,-15979,0,-27,-21,0,40415
1749338440.868700484,12857,-16023,0,-26,-22,0,40427
1749338440.920817912,12831,-16045,0,-26,-22,0,40402
1749338440.973683614,12805,-16067,0,-27,-22,0,40407
1749338441.028830951,12778,-16089,0,-26,-22,0,41056
1749338441.078684670,12725,-16133,0,-25,-23,0,40437
1749338441.131764575,12700,-16156,0,-27,-21,0,40389
1749338441.185756455,12673,-16177,0,-26,-22,0,40398
1749338441.240789219,12621,-16223,0,-25,-21,0,40412
1749338441.293798883,12596,-16244,0,-27,-22,0,40413
1749338441.343797120,12569,-16266,0,-26,-23,0,41387
1749338441.396715192,12543,-16289,0,-25,-22,0,40406
1749338441.454646347,12492,-16333,0,-25,-22,0,40404
1749338441.509877572,12467,-16355,0,-26,-23,0,41474
1749338441.560703008,12416,-16400,0,-6,-4,0,40409
1749338441.618891754,12410,-16404,0,0,0,0,40381
1749338441.670849369,12410,-16404,0,0,0,0,40410
1749338441.723887718,12410,-16404,0,0,0,0,40406
1749338441.776699994,12410,-16404,0,82,-72,0,40391
1749338441.829986897,12492,-16476,0,150,-137,0,40431
1749338441.881771939,12777,-16739,0,106,-101,0,40447
1749338441.934851880,12883,-16840,0,109,-101,0,40409
1749338441.986856939,12992,-16941,0,125,-116,0,40434
1749338442.037891707,13117,-17057,0,130,-120,0,40411
1749338442.095741936,13372,-17294,0,120,-113,0,40436
1749338442.150897551,13492,-17407,0,125,-115,0,40412
1749338442.199716794,13617,-17522,0,126,-118,0,40428
1749338442.255905422,13871,-17761,0,125,-116,0,40424
1749338442.307839111,13996,-17877,0,123,-117,0,40424
1749338442.360937570,14119,-17994,0,126,-117,0,40426
1749338442.415873650,14371,-18229,0,124,-117,0,40422
1749338442.468939554,14495,-18346,0,124,-117,0,40400
1749338442.523884189,14619,-18463,0,124,-117,0,40432
1749338442.574926419,14868,-18697,0,125,-120,0,41142
1749338442.630824641,14993,-18817,0,124,-116,0,40398
1749338442.686878344,15117,-18933,0,127,-121,0,41577
1749338442.741790442,15368,-19171,0,122,-118,0,40414
1749338442.794877328,15490,-19289,0,123,-116,0,40428
1749338442.854879434,15613,-19405,0,128,-121,0,41645
1749338442.913928934,15863,-19643,0,122,-118,0,40427
1749338442.964923887,15985,-19761,0,123,-116,0,40404
1749338443.015945118,16108,-19877,0,123,-119,0,40972
1749338443.067812696,16354,-20113,0,122,-117,0,40417
1749338443.119929217,16476,-20230,0,122,-118,0,40433
1749338443.178935940,16598,-20348,0,121,-116,0,40418
1749338443.234967957,16841,-20582,0,122,-116,0,40408
1749338443.287828456,16963,-20698,0,121,-118,0,40401
1749338443.337964932,17084,-20816,0,122,-117,0,40417
1749338443.389905769,17329,-21052,0,122,-116,0,40427
1749338443.442982803,17451,-21168,0,121,-117,0,40408
1749338443.495922690,17572,-21285,0,120,-118,0,40413
1749338443.548997539,17816,-21522,0,121,-116,0,40414
1749338443.606920823,17937,-21638,0,120,-118,0,40424
1749338443.660975648,18057,-21756,0,121,-116,0,40429
1749338443.719834427,18300,-21990,0,119,-117,0,40430
1749338443.775981592,18419,-22107,0,121,-116,0,40402
1749338443.827955595,18540,-22223,0,120,-117,0,40422
1749338443.884999348,18780,-22457,0,122,-119,0,41304
1749338443.937883068,18902,-22576,0,119,-116,0,40416
1749338443.988994058,19021,-22692,0,121,-117,0,40419
1749338444.042886143,19263,-22929,0,119,-116,0,40425
1749338444.094934201,19382,-23045,0,120,-117,0,40406
1749338444.149943558,19502,-23162,0,119,-116,0,40420
1749338444.203892235,19743,-23398,0,118,-116,0,40429
1749338444.258970499,19861,-23514,0,120,-117,0,40413
1749338444.312954972,19981,-23631,0,118,-116,0,40419
1749338444.367845274,20220,-23865,0,119,-117,0,40421
1749338444.420040461,20339,-23982,0,118,-116,0,40409
1749338444.477870172,20457,-24098,0,118,-116,0,40409
1749338444.530163951,20698,-24335,0,119,-116,0,40421
1749338444.584987846,20817,-24451,0,118,-115,0,40406
1749338444.638009158,20935,-24566,0,118,-117,0,40415
1749338444.684853542,21173,-24801,0,119,-117,0,40433
1749338444.741076206,21292,-24918,0,118,-115,0,40391
1749338444.794912551,21410,-25033,0,118,-115,0,40421
1749338444.854020644,21650,-25269,0,118,-116,0,40419
1749338444.906916382,21768,-25385,0,118,-116,0,40398
1749338444.962028146,21886,-25501,0,118,-117,0,40427
1749338445.013896779,22123,-25734,0,118,-117,0,40434
1749338445.067145090,22241,-25851,0,118,-116,0,40408
1749338445.118928132,22359,-25967,0,117,-116,0,40441
1749338445.169058701,22594,-26200,0,119,-117,0,40941
1749338445.228104812,22713,-26317,0,117,-116,0,40402
1749338445.277211813,22830,-26433,0,118,-116,0,40432
1749338445.328952207,22948,-26549,0,120,-120,0,41602
1749338445.380890488,23186,-26785,0,117,-116,0,40415
1749338445.435036571,23303,-26901,0,116,-116,0,40414
1749338445.485915211,23419,-27017,0,122,-119,0,41626
1749338445.544058346,23658,-27252,0,117,-117,0,40425
1749338445.593887194,23775,-27369,0,116,-116,0,40394
1749338445.650061211,23891,-27485,0,119,-117,0,40966
1749338445.704960198,24127,-27717,0,117,-117,0,40444
1749338445.760067331,24244,-27834,0,118,-117,0,40390
1749338445.813969509,24362,-27951,0,119,-118,0,41576
1749338445.869067050,24598,-28185,0,118,-116,0,40428
1749338445.922988598,24716,-28301,0,116,-116,0,40409
1749338445.977091645,24832,-28417,0,119,-117,0,40899
1749338446.028094024,25067,-28650,0,117,-116,0,40437
1749338446.081091503,25184,-28766,0,117,-115,0,40407
1749338446.134984181,25301,-28881,0,121,-119,0,41632
1749338446.182222062,25422,-29000,0,116,-116,0,40409
1749338446.237093586,25654,-29232,0,117,-116,0,40428
1749338446.290907450,25771,-29348,0,119,-117,0,40906
1749338446.346234638,25890,-29465,0,116,-115,0,40419
1749338446.399945557,26123,-29697,0,116,-115,0,40448
1749338446.456197073,26239,-29812,0,116,-115,0,40408
1749338446.509008349,26355,-29927,0,119,-119,0,41209
1749338446.563108081,26591,-30161,0,116,-116,0,40426
1749338446.621017811,26707,-30277,0,118,-118,0,41265
1749338446.672098078,26825,-30395,0,117,-116,0,40396
1749338446.725968608,27058,-30627,0,116,-115,0,40435
1749338446.781120278,27174,-30742,0,22,-24,0,41561
1749338446.837126462,27196,-30766,0,-23,19,0,40410
1749338446.893197072,27168,-30742,0,0,0,0,40400
1749338446.944060748,27168,-30742,0,0,0,0,40979
1749338446.993013232,27168,-30742,0,0,0,0,40397
1749338447.045088290,27150,-30747,0,-36,-20,0,40415
1749338447.095983966,27114,-30767,0,-35,-24,0,40392
1749338447.155103670,27079,-30791,0,-30,-19,0,40662
1749338447.202934974,27020,-30827,0,-32,-19,0,40436
1749338447.258259940,26988,-30846,0,-35,-20,0,40378
1749338447.313010427,26953,-30866,0,-34,-22,0,40901
1749338447.372138113,26886,-30907,0,-32,-20,0,40428
1749338447.427066710,26854,-30927,0,-34,-21,0,40405
1749338447.483155024,26820,-30948,0,-34,-21,0,41638
1749338447.535129934,26752,-30990,0,-32,-20,0,40430
1749338447.587147604,26720,-31010,0,-32,-21,0,40395
1749338447.640037732,26688,-31031,0,-35,-22,0,40963
1749338447.693124821,26621,-31073,0,-32,-22,0,40409
1749338447.747043888,26589,-31095,0,-33,-20,0,40408
1749338447.799170557,26556,-31115,0,-31,-22,0,40423
1749338447.852293553,26525,-31137,0,-33,-21,0,41278
1749338447.906198675,26460,-31179,0,-32,-21,0,40422
1749338447.959027526,26428,-31200,0,-31,-22,0,41300
1749338448.015257635,26397,-31222,0,-32,-21,0,40405
1749338448.069220312,26335,-31265,0,-31,-21,0,40413
1749338448.124249020,26304,-31286,0,-32,-21,0,41580
1749338448.178064680,26272,-31307,0,-30,-23,0,40415
1749338448.238127359,26211,-31350,0,-30,-22,0,40436
1749338448.291022320,26181,-31372,0,-30,-22,0,40810
1749338448.340254117,26121,-31415,0,-30,-21,0,40428
1749338448.391038608,26091,-31436,0,-29,-22,0,40396
1749338448.443216277,26062,-31458,0,-30,-22,0,40431
1749338448.500208715,26032,-31480,0,-29,-21,0,40599
1749338448.550110174,25974,-31523,0,-30,-21,0,40425
1749338448.607219464,25944,-31544,0,-28,-22,0,40401
1749338448.664115032,25916,-31566,0,-29,-22,0,41007
1749338448.720246160,25858,-31610,0,-29,-22,0,40433
1749338448.774074763,25829,-31632,0,-28,-21,0,40393
1749338448.833167356,25773,-31675,0,-29,-22,0,40613
1749338448.890358700,25744,-31697,0,-27,-22,0,40387
1749338448.942353296,25717,-31719,0,-29,-21,0,40410
1749338448.996072308,25661,-31762,0,-28,-23,0,40962
1749338449.052217343,25633,-31785,0,-28,-21,0,40407
1749338449.107049497,25605,-31806,0,-27,-22,0,40395
1749338449.168257819,25550,-31850,0,-26,-22,0,40423
1749338449.223159250,25524,-31872,0,-28,-22,0,40982
1749338449.276271413,25468,-31916,0,-26,-22,0,40414
1749338449.331144011,25442,-31938,0,-28,-22,0,41609
1749338449.385436928,25414,-31960,0,-27,-22,0,40416
1749338449.443200917,25360,-32005,0,-26,-21,0,40422
1749338449.502258380,25334,-32026,0,-27,-23,0,41648
1749338449.556135706,25307,-32049,0,-27,-22,0,40409
1749338449.612269704,25254,-32093,0,-27,-21,0,40419
1749338449.661258576,25227,-32114,0,-26,-23,0,41115
1749338449.718293606,25201,-32137,0,-26,-23,0,40403
1749338449.769130931,25148,-32181,0,-25,-22,0,40424
1749338449.827320047,25123,-32203,0,-26,-22,0,40395
1749338449.881142503,25097,-32225,0,-27,-23,0,40552
1749338449.935237531,25045,-32269,0,-25,-23,0,40421
1749338449.987069461,25020,-32292,0,-26,-22,0,40423
1749338450.035234949,24994,-32314,0,-27,-22,0,40979
1749338450.090077584,24942,-32358,0,-25,-22,0,40407
1749338450.141078778,24917,-32380,0,-26,-22,0,40412
1749338450.194281034,24891,-32402,0,-25,-23,0,40410
1749338450.250256274,24861,-32430,0,0,0,0,40397
1749338450.303288363,24861,-32430,0,0,0,0,40382
1749338450.359285622,24861,-32430,0,0,0,0,40420
1749338450.415313861,24861,-32430,0,82,-72,0,40407
1749338450.466228945,24943,-32502,0,152,-137,0,40414
1749338450.527329082,25095,-32639,0,135,-127,0,40419
1749338450.586308212,25338,-32869,0,110,-102,0,40422
1749338450.644261145,25448,-32971,0,126,-115,0,40412
1749338450.695282672,25703,-33207,0,123,-115,0,40544
1749338450.748337928,25826,-33322,0,122,-113,0,40420
1749338450.801156315,25948,-33435,0,123,-116,0,40424
1749338450.849312637,26071,-33551,0,127,-117,0,40413
1749338450.905191210,26322,-33785,0,126,-117,0,40727
1749338450.959411812,26448,-33902,0,124,-118,0,40418
1749338451.013354767,26572,-34020,0,124,-116,0,40409
1749338451.068479345,26821,-34253,0,127,-120,0,40924
1749338451.122348801,26948,-34373,0,123,-116,0,40417
1749338451.176235441,27071,-34489,0,124,-117,0,40423
1749338451.232416162,27319,-34724,0,124,-117,0,40446
1749338451.285259975,27443,-34841,0,124,-117,0,40456
1749338451.334419309,27567,-34958,0,124,-117,0,40400
1749338451.389236685,27813,-35192,0,124,-118,0,40425
1749338451.439261310,27937,-35310,0,126,-119,0,41121
1749338451.487362298,28063,-35429,0,122,-117,0,40431
1749338451.548306362,28185,-35546,0,124,-117,0,40432
1749338451.601233601,28431,-35780,0,126,-120,0,41377
1749338451.654324209,28557,-35900,0,123,-117,0,40401
1749338451.709254769,28801,-36134,0,125,-119,0,41235
1749338451.768324973,28926,-36253,0,123,-117,0,40414
1749338451.822274021,29049,-36370,0,122,-117,0,40433
1749338451.876369697,29292,-36604,0,122,-117,0,40408
1749338451.929255195,29414,-36721,0,124,-119,0,41290
1749338451.983346261,29538,-36840,0,121,-117,0,40420
1749338452.040268644,29781,-37074,0,123,-119,0,41230
1749338452.088322039,29904,-37193,0,122,-117,0,40401
1749338452.141277981,30026,-37310,0,120,-116,0,40411
1749338452.193217189,30267,-37543,0,120,-118,0,40432
1749338452.251341509,30387,-37661,0,122,-117,0,40662
1749338452.305231038,30509,-37778,0,120,-116,0,40420
1749338452.358348591,30749,-38011,0,120,-117,0,40430
1749338452.410286039,30869,-38128,0,122,-118,0,41072
1749338452.464356512,30991,-38246,0,120,-117,0,40426
1749338452.516308330,31111,-38363,0,119,-117,0,40416
1749338452.575341015,31350,-38597,0,123,-119,0,41383
1749338452.628392716,31473,-38716,0,120,-116,0,40398
1749338452.680520496,31711,-38949,0,120,-117,0,40424
1749338452.739316369,31831,-39066,0,122,-117,0,40941
1749338452.793431786,31953,-39183,0,118,-118,0,40432
1749338452.848475031,32191,-39417,0,119,-116,0,40427
1749338452.905447413,32310,-39533,0,123,-120,0,41598
1749338452.961296895,32433,-39653,0,118,-117,0,40401
1749338453.017374523,32671,-39886,0,119,-116,0,40420
1749338453.072298343,32790,-40002,0,119,-118,0,40882
1749338453.128397508,32909,-40120,0,119,-116,0,40398
1749338453.181368709,33148,-40353,0,117,-116,0,40434
1749338453.236429473,33265,-40469,0,119,-116,0,40407
1749338453.290292799,33505,-40704,0,119,-116,0,40427
1749338453.342433264,33624,-40820,0,118,-116,0,40413
1749338453.398290523,33742,-40936,0,120,-119,0,41256
1749338453.449450420,33862,-41055,0,118,-116,0,40413
1749338453.504302703,34099,-41287,0,117,-116,0,40428
1749338453.560513831,34216,-41403,0,121,-119,0,41585
1749338453.613268811,34337,-41522,0,119,-117,0,40421
1749338453.668390519,34573,-41755,0,117,-116,0,40441
1749338453.725431586,34690,-41871,0,120,-117,0,40917
1749338453.775508841,34927,-42105,0,118,-115,0,40419
1749338453.830426031,35045,-42220,0,117,-116,0,40390
1749338453.883467713,35162,-42336,0,121,-120,0,41576
1749338453.934457093,35283,-42456,0,117,-116,0,40400
1749338453.992445488,35518,-42688,0,117,-116,0,40418
1749338454.041336860,35635,-42804,0,119,-118,0,40913
1749338454.094472968,35754,-42922,0,117,-115,0,40416
1749338454.147325041,35989,-43154,0,117,-116,0,40448
1749338454.200469167,36106,-43270,0,120,-119,0,41620
1749338454.250381330,36226,-43389,0,118,-116,0,40411
1749338454.305461927,36344,-43505,0,117,-116,0,40430
1749338454.362338569,36578,-43737,0,119,-118,0,40899
1749338454.408431902,36697,-43855,0,117,-115,0,40414
1749338454.466357112,36814,-43970,0,117,-116,0,40414
1749338454.522411629,37047,-44203,0,118,-115,0,40418
1749338454.574440854,37165,-44318,0,118,-117,0,40929
1749338454.631365089,37283,-44435,0,117,-116,0,40399
1749338454.684519549,37516,-44667,0,120,-119,0,41596
1749338454.738359671,37636,-44786,0,118,-115,0,40404
1749338454.791531278,37754,-44901,0,116,-116,0,40428
1749338454.847431797,37986,-45132,0,120,-120,0,41626
1749338454.896580427,38106,-45252,0,117,-116,0,40420
1749338454.950408753,38223,-45368,0,116,-115,0,40405
1749338455.003425621,38456,-45599,0,117,-117,0,40874
1749338455.055530086,38573,-45716,0,116,-116,0,40405
1749338455.106482021,38689,-45832,0,116,-116,0,40412
1749338455.156490461,38922,-46063,0,120,-119,0,41582
1749338455.211349115,39042,-46182,0,116,-116,0,40400
1749338455.268501811,39158,-46298,0,115,-116,0,40421
1749338455.323409557,39391,-46530,0,117,-116,0,40930
1749338455.377518474,39508,-46646,0,116,-116,0,40414
1749338455.430395306,39624,-46762,0,117,-117,0,40424
1749338455.487584446,39741,-46879,0,23,-24,0,40409
1749338455.539542524,39739,-46882,0,-4,4,0,40395
1749338455.594526491,39735,-46878,0,1,0,0,40401
1749338455.648482669,39736,-46878,0,-17,-8,0,40950
1749338455.707529484,39719,-46886,0,-34,-21,0,40386
1749338455.762405489,39685,-46907,0,-35,-24,0,40417
1749338455.816563906,39620,-46949,0,-29,-17,0,40415
1749338455.875478333,39591,-46966,0,-34,-21,0,41379
1749338455.926557508,39557,-46987,0,-34,-20,0,40415
1749338455.977495073,39490,-47026,0,-35,-21,0,41219
1749338456.032575392,39455,-47047,0,-32,-20,0,40405
1749338456.086449477,39423,-47067,0,-34,-20,0,40401
1749338456.141563592,39355,-47107,0,-33,-21,0,40419
1749338456.196512745,39322,-47128,0,-33,-20,0,40686
1749338456.247612198,39289,-47148,0,-33,-20,0,40408
1749338456.299464757,39223,-47189,0,-32,-21,0,40403
1749338456.353639896,39191,-47210,0,-33,-20,0,40897
1749338456.406504746,39158,-47230,0,-33,-21,0,40423
1749338456.462562671,39093,-47272,0,-31,-20,0,40430
1749338456.517515046,39062,-47292,0,-33,-22,0,41643
1749338456.569623901,39029,-47314,0,-32,-20,0,40404
1749338456.617390613,38966,-47356,0,-30,-20,0,40417
1749338456.684544530,38936,-47376,0,-33,-21,0,40842
1749338456.731538006,38903,-47397,0,-30,-21,0,40414
1749338456.785547072,38843,-47439,0,-31,-22,0,40433
1749338456.840594799,38812,-47461,0,-31,-20,0,40405
1749338456.895606636,38781,-47481,0,-30,-22,0,40623
1749338456.948502375,38722,-47524,0,-31,-21,0,40416
1749338457.001641965,38691,-47545,0,-30,-21,0,40404
1749338457.057487576,38661,-47566,0,-29,-21,0,40982
1749338457.110600535,38603,-47609,0,-30,-22,0,40410
1749338457.162476058,38573,-47631,0,-29,-20,0,40406
1749338457.215601980,38544,-47651,0,-29,-22,0,40417
1749338457.266616730,38486,-47695,0,-29,-21,0,40428
1749338457.323604279,38457,-47716,0,-28,-21,0,40395
1749338457.376509054,38429,-47737,0,-30,-23,0,41674
1749338457.431641540,38399,-47760,0,-28,-22,0,40413
1749338457.483526747,38343,-47803,0,-28,-21,0,40429
1749338457.538647974,38315,-47824,0,-29,-23,0,41590
1749338457.594500733,38286,-47847,0,-28,-21,0,40402
1749338457.648708260,38230,-47890,0,-28,-22,0,40415
1749338457.698480035,38202,-47912,0,-27,-22,0,40951
1749338457.751620532,38175,-47934,0,-27,-21,0,40399
1749338457.806517370,38119,-47977,0,-26,-22,0,40429
1749338457.863672622,38093,-47999,0,-28,-23,0,41622
1749338457.914504502,38065,-48022,0,-28,-21,0,40403
1749338457.965771398,38011,-48065,0,-27,-23,0,40425
1749338458.019522614,37984,-48088,0,-27,-21,0,40938
1749338458.069683979,37957,-48109,0,-28,-22,0,40389
1749338458.121539798,37903,-48153,0,-27,-23,0,40427
1749338458.177677296,37876,-48176,0,-26,-21,0,40390
1749338458.227509830,37850,-48197,0,-27,-22,0,40637
1749338458.283708532,37823,-48219,0,-27,-22,0,40406
1749338458.333475992,37770,-48264,0,-26,-21,0,40412
1749338458.390622743,37744,-48285,0,-27,-22,0,41026
1749338458.440532277,37717,-48307,0,-26,-23,0,40410
1749338458.495659151,37665,-48352,0,-26,-22,0,40439
1749338458.549615884,37639,-48374,0,-26,-21,0,40407
1749338458.598646626,37613,-48395,0,-26,-24,0,41002
1749338458.652580433,37561,-48441,0,-26,-21,0,40413
1749338458.705611782,37535,-48462,0,-26,-23,0,41507
1749338458.761674040,37509,-48485,0,-25,-23,0,40411
1749338458.817690669,37458,-48530,0,-26,-22,0,40415
1749338458.869712875,37432,-48552,0,-5,-3,0,40379
1749338458.920687755,37427,-48555,0,0,0,0,40611
1749338458.978694261,37427,-48555,0,0,0,0,40424
1749338459.030596468,37427,-48555,0,0,0,0,40397
1749338459.082822711,37427,-48555,0,0,0,0,41616
1749338459.133559239,37427,-48555,0,81,-71,0,40427
1749338459.190650566,37662,-48764,0,136,-128,0,40421
1749338459.244608872,37798,-48892,0,107,-102,0,41610
1749338459.298694642,37905,-48994,0,109,-101,0,40402
1749338459.351552992,38141,-49211,0,128,-121,0,40428
1749338459.407681712,38269,-49332,0,124,-115,0,40906
1749338459.460587136,38393,-49447,0,121,-113,0,40409
1749338459.516727394,38637,-49677,0,126,-117,0,40430
1749338459.568598046,38763,-49794,0,129,-120,0,41631
1749338459.623699716,38892,-49914,0,123,-117,0,40430
1749338459.677605431,39140,-50148,0,127,-119,0,41212
1749338459.729735378,39267,-50267,0,125,-118,0,40416
1749338459.781606974,39392,-50385,0,124,-117,0,40413
1749338459.839744850,39640,-50619,0,129,-121,0,41854
1749338459.889614365,39769,-50740,0,124,-118,0,40408
1749338459.942730991,39893,-50858,0,125,-117,0,40424
1749338460.000603424,40144,-51096,0,124,-117,0,40422
1749338460.050820604,40268,-51213,0,124,-117,0,40408
1749338460.100588842,40392,-51330,0,123,-117,0,40405
1749338460.154695667,40638,-51564,0,125,-118,0,40589
1749338460.208598548,40763,-51682,0,122,-117,0,40413
1749338460.262725928,40885,-51799,0,122,-117,0,40433
1749338460.316617013,41130,-52033,0,125,-119,0,40876
1749338460.370719374,41255,-52152,0,122,-116,0,40407
1749338460.421632958,41377,-52268,0,121,-117,0,40433
1749338460.475716190,41498,-52385,0,123,-118,0,40424
1749338460.528778779,41746,-52623,0,122,-117,0,40428
1749338460.581744147,41868,-52740,0,122,-117,0,40413
1749338460.635700065,41990,-52857,0,121,-117,0,40425
1749338460.688760562,42233,-53093,0,122,-117,0,40437
1749338460.744643136,42355,-53210,0,121,-117,0,40398
1749338460.799781622,42476,-53327,0,121,-116,0,40424
1749338460.854697775,42720,-53563,0,121,-117,0,40425
1749338460.910705959,42841,-53680,0,121,-117,0,40413
1749338460.960641270,42962,-53797,0,120,-117,0,40414
1749338461.017735152,43204,-54031,0,121,-118,0,40431
1749338461.071692051,43325,-54149,0,120,-116,0,40415
1749338461.129775557,43445,-54265,0,120,-116,0,40434
1749338461.178697874,43685,-54498,0,121,-119,0,40909
1749338461.232798254,43806,-54617,0,121,-115,0,40420
1749338461.286670635,43927,-54732,0,119,-116,0,40406
1749338461.339772465,44169,-54968,0,120,-117,0,40420
1749338461.395792242,44289,-55085,0,120,-116,0,40397
1749338461.449821086,44409,-55201,0,119,-117,0,40420
1749338461.502686454,44650,-55437,0,120,-117,0,40432
1749338461.557749162,44770,-55554,0,120,-117,0,40407
1749338461.611658080,44890,-55671,0,118,-116,0,40404
1749338461.664801207,45129,-55904,0,119,-117,0,40413
1749338461.720660762,45248,-56021,0,119,-117,0,40419
1749338461.776766409,45367,-56138,0,118,-116,0,40415
1749338461.832724538,45606,-56373,0,119,-116,0,40423
1749338461.885832275,45725,-56489,0,119,-116,0,40412
1749338461.938692385,45844,-56605,0,118,-117,0,40429
1749338461.993769574,46081,-56839,0,118,-116,0,40418
1749338462.044759990,46199,-56955,0,119,-116,0,40407
1749338462.099781032,46318,-57071,0,118,-117,0,40401
1749338462.148673015,46557,-57307,0,119,-116,0,40422
1749338462.201835882,46676,-57423,0,118,-117,0,40411
1749338462.258742969,46794,-57540,0,117,-115,0,40437
1749338462.316813900,47030,-57773,0,118,-116,0,40433
1749338462.372725585,47148,-57889,0,119,-116,0,40419
1749338462.429858041,47267,-58005,0,117,-116,0,40421
1749338462.482758446,47501,-58237,0,121,-119,0,41318
1749338462.534878060,47622,-58356,0,118,-115,0,40425
1749338462.587722151,47740,-58471,0,117,-117,0,40409
1749338462.642869006,47978,-58706,0,117,-116,0,40423
1749338462.697705808,48095,-58822,0,117,-116,0,40404
1749338462.753843214,48212,-58938,0,117,-115,0,40430
1749338462.807018877,48451,-59173,0,117,-116,0,40427
1749338462.859880857,48568,-59289,0,116,-116,0,40418
1749338462.918821746,48684,-59405,0,118,-116,0,40405
1749338462.970896657,48921,-59637,0,117,-117,0,40415
1749338463.022762309,49038,-59754,0,116,-115,0,40419
1749338463.076890022,49154,-59869,0,117,-116,0,40421
1749338463.132752614,49392,-60104,0,117,-116,0,40441
1749338463.183982473,49509,-60220,0,116,-115,0,40401
1749338463.235921921,49625,-60335,0,116,-115,0,40429
1749338463.289887691,49860,-60568,0,116,-116,0,40409
1749338463.345768357,49976,-60684,0,117,-115,0,40414
1749338463.400884528,50093,-60799,0,117,-115,0,40415
1749338463.451819574,50330,-61034,0,116,-116,0,40425
1749338463.503912947,50446,-61150,0,117,-115,0,40400
1749338463.553812592,50563,-61265,0,117,-116,0,40427
1749338463.604932785,50797,-61498,0,118,-115,0,40424
1749338463.660826062,50915,-61613,0,116,-116,0,40396
1749338463.714864702,51031,-61729,0,116,-116,0,40420
1749338463.768761657,51147,-61845,0,117,-115,0,40421
1749338463.819881017,51382,-62077,0,117,-116,0,40430
1749338463.873872861,51499,-62193,0,116,-116,0,40412
1749338463.931866941,51615,-62309,0,119,-118,0,41513
1749338463.986764335,51851,-62542,0,117,-116,0,40424
1749338464.045936465,51968,-62658,0,116,-117,0,40426
1749338464.097789543,52203,-62893,0,25,-24,0,40401
1749338464.151953330,52228,-62917,0,-23,19,0,40384
1749338464.206869539,52205,-62898,0,-6,4,0,40402
1749338464.260950493,52200,-62894,0,0,0,0,40417
1749338464.315112873,52200,-62894,0,-16,-9,0,40395
1749338464.368926051,52184,-62903,0,-34,-21,0,40441
1749338464.423798112,52113,-62947,0,-29,-19,0,40423
1749338464.477940103,52084,-62966,0,-30,-17,0,40399
1749338464.530827267,52054,-62983,0,-33,-20,0,40410
1749338464.586920544,51986,-63024,0,-33,-19,0,40414
1749338464.636922095,51953,-63043,0,-33,-20,0,40411
1749338464.693920996,51920,-63063,0,-34,-20,0,40403
1749338464.745836314,51852,-63105,0,-34,-19,0,40409
1749338464.798958830,51818,-63124,0,-34,-21,0,40400
1749338464.852936970,51784,-63145,0,-32,-21,0,40425
1749338464.902958539,51718,-63186,0,-33,-21,0,40427
1749338464.956825847,51685,-63207,0,-34,-20,0,40381
1749338465.013937580,51651,-63227,0,-32,-22,0,40419
1749338465.063946039,51619,-63249,0,-31,-20,0,40418
1749338465.118991580,51554,-63290,0,-33,-21,0,40404
1749338465.173864734,51521,-63311,0,-31,-21,0,40403
1749338465.225919681,51490,-63332,0,-32,-21,0,41250
1749338465.281960476,51426,-63374,0,-31,-21,0,40418
1749338465.338827859,51395,-63395,0,-31,-21,0,40406
1749338465.392000096,51364,-63416,0,-32,-22,0,40396
1749338465.446915916,51302,-63458,0,-31,-22,0,40417
1749338465.504986459,51271,-63480,0,-30,-21,0,40397
1749338465.560961903,51210,-63522,0,-30,-22,0,40813
1749338465.616020537,51180,-63544,0,-30,-20,0,40399
1749338465.665888848,51150,-63564,0,-30,-22,0,40428
1749338465.714023114,51090,-63608,0,-29,-21,0,40433
1749338465.768904471,51061,-63629,0,-30,-21,0,40731
1749338465.820969714,51031,-63650,0,-30,-22,0,40409
1749338465.878016837,51001,-63672,0,-28,-22,0,40404
1749338465.930001470,50944,-63715,0,-30,-22,0,41018
1749338465.983031782,50914,-63737,0,-28,-21,0,40390
1749338466.041942283,50886,-63758,0,-29,-22,0,40400
1749338466.097992986,50829,-63802,0,-29,-21,0,40419
1749338466.153889337,50800,-63823,0,-27,-22,0,40680
1749338466.205998821,50744,-63867,0,-28,-22,0,40414
1749338466.256930534,50716,-63889,0,-28,-21,0,40408
1749338466.315003725,50688,-63910,0,-28,-22,0,41036
1749338466.366903803,50633,-63954,0,-28,-22,0,40419
1749338466.424031480,50605,-63976,0,-27,-22,0,40378
1749338466.477923954,50578,-63998,0,-28,-22,0,41852
1749338466.532035612,50523,-64042,0,-28,-22,0,40427
1749338466.582004164,50495,-64064,0,-27,-22,0,40399
1749338466.635967044,50468,-64086,0,-26,-22,0,41149
1749338466.689010301,50442,-64108,0,-28,-22,0,40408
1749338466.744997800,50388,-64151,0,-27,-23,0,40439
1749338466.792916104,50361,-64174,0,-27,-23,0,41576
1749338466.847064891,50334,-64197,0,-27,-21,0,40405
1749338466.897062998,50281,-64240,0,-26,-23,0,40405
1749338466.949024205,50255,-64263,0,-27,-21,0,40932
1749338467.005902699,50228,-64284,0,-26,-23,0,40414
1749338467.064029779,50176,-64329,0,-26,-21,0,40415
1749338467.114927695,50150,-64350,0,-27,-23,0,41592
1749338467.163055405,50123,-64373,0,-25,-23,0,40404
1749338467.213965859,50098,-64396,0,-27,-22,0,40423
1749338467.268968605,50045,-64440,0,-25,-23,0,40421
1749338467.324043312,50020,-64463,0,-26,-21,0,40401
1749338467.377963379,49994,-64484,0,-25,-23,0,40406
1749338467.434057174,49942,-64530,0,-25,-22,0,40430
1749338467.486977801,49917,-64552,0,-25,-21,0,40402
1749338467.539147451,49892,-64573,0,-26,-23,0,40402
1749338467.595003192,49863,-64600,0,0,0,0,40401
1749338467.651049746,49863,-64600,0,0,0,0,40405
1749338467.698902273,49863,-64600,0,0,0,0,40403
1749338467.749024305,49950,-64677,0,150,-140,0,40434
1749338467.803926588,50100,-64817,0,135,-127,0,40411
1749338467.863136180,50235,-64944,0,108,-102,0,41618
1749338467.921016965,50453,-65148,0,125,-116,0,40416
1749338467.976102524,50578,-65264,0,130,-120,0,40410
1749338468.025915447,50708,-65384,0,127,-119,0,41611
1749338468.082213704,50955,-65616,0,124,-115,0,40420
1749338468.135967660,51079,-65731,0,127,-118,0,40400
1749338468.193109189,51206,-65849,0,126,-118,0,40876
1749338468.247016904,51456,-66084,0,126,-116,0,40443
1749338468.300225789,51582,-66200,0,124,-117,0,40400
1749338468.353991986,51706,-66317,0,124,-118,0,40411
1749338468.409138786,51956,-66552,0,125,-117,0,40425
1749338468.466029373,52081,-66669,0,124,-118,0,40416
1749338468.523134495,52329,-66904,0,125,-117,0,40779
1749338468.575018554,52454,-67021,0,123,-118,0,40417
1749338468.630097633,52577,-67139,0,125,-117,0,40424
1749338468.687048219,52826,-67373,0,125,-121,0,41514
1749338468.744092082,52951,-67494,0,124,-116,0,40390
1749338468.801023613,53075,-67610,0,123,-118,0,40428
1749338468.859250692,53321,-67845,0,123,-118,0,41059
1749338468.909164855,53444,-67963,0,123,-118,0,40398
1749338468.963117995,53567,-68081,0,123,-117,0,40408
1749338469.017987871,53812,-68314,0,122,-117,0,40428
1749338469.071168516,53934,-68431,0,124,-120,0,40964
1749338469.128994745,54058,-68551,0,121,-116,0,40398
1749338469.185246076,54301,-68784,0,126,-120,0,41550
1749338469.239092828,54427,-68904,0,121,-117,0,40396
1749338469.289297915,54669,-69137,0,121,-118,0,40425
1749338469.342994001,54790,-69255,0,126,-120,0,41650
1749338469.398156727,54916,-69375,0,121,-117,0,40434
1749338469.451035003,55037,-69492,0,121,-117,0,40403
1749338469.507154538,55278,-69725,0,122,-118,0,40833
1749338469.559049135,55400,-69843,0,122,-118,0,40420
1749338469.614290693,55522,-69961,0,119,-116,0,40408
1749338469.666083772,55762,-70192,0,120,-118,0,40439
1749338469.720208318,55882,-70310,0,121,-117,0,40632
1749338469.768029123,56003,-70427,0,120,-117,0,40414
1749338469.831186007,56243,-70659,0,120,-116,0,40427
1749338469.887112211,56363,-70775,0,122,-118,0,41088
1749338469.938266681,56485,-70893,0,119,-116,0,40420
1749338469.991065828,56724,-71125,0,119,-117,0,40415
1749338470.044163269,56843,-71242,0,122,-119,0,41492
1749338470.097096452,56965,-71361,0,119,-116,0,40420
1749338470.151204536,57203,-71594,0,120,-117,0,40439
1749338470.206047116,57323,-71711,0,119,-116,0,40797
1749338470.261196860,57442,-71827,0,119,-117,0,40400
1749338470.312052203,57680,-72060,0,119,-117,0,40414
1749338470.369148881,57799,-72177,0,118,-116,0,40420
1749338470.424123904,57917,-72293,0,120,-117,0,40886
1749338470.481239156,58157,-72527,0,118,-116,0,40427
1749338470.536123791,58275,-72643,0,121,-120,0,41624
1749338470.592231567,58396,-72763,0,119,-116,0,40416
1749338470.644065590,58634,-72996,0,118,-115,0,40412
1749338470.702239095,58752,-73111,0,122,-120,0,41632
1749338470.749193775,58992,-73348,0,118,-115,0,40438
1749338470.803233841,59110,-73463,0,118,-116,0,40398
1749338470.856231171,59228,-73579,0,120,-118,0,41144
1749338470.913261683,59348,-73697,0,119,-117,0,40416
1749338470.970089270,59584,-73929,0,118,-116,0,40438
1749338471.023278414,59702,-74045,0,121,-119,0,41378
1749338471.073141300,59823,-74164,0,117,-116,0,40410
1749338471.128263433,60058,-74396,0,117,-116,0,40424
1749338471.178106301,60175,-74512,0,120,-117,0,40917
1749338471.234256484,60295,-74629,0,117,-116,0,40402
1749338471.286144451,60529,-74861,0,117,-117,0,40421
1749338471.343247684,60646,-74978,0,121,-118,0,41600
1749338471.398109134,60767,-75096,0,117,-116,0,40422
1749338471.452293958,61001,-75328,0,117,-117,0,40431
1749338471.508197198,61118,-75445,0,119,-116,0,40920
1749338471.566282223,61237,-75561,0,116,-116,0,40403
1749338471.624114359,61470,-75793,0,118,-116,0,40420
1749338471.678259480,61588,-75909,0,116,-116,0,40425
1749338471.729140063,61824,-76142,0,116,-116,0,40417
1749338471.787304476,61940,-76258,0,117,-116,0,40416
1749338471.840258196,62057,-76374,0,120,-119,0,41273
1749338471.896298491,62294,-76608,0,116,-116,0,40424
1749338471.948170347,62410,-76724,0,117,-115,0,40407
1749338472.004329678,62527,-76839,0,118,-116,0,40418
1749338472.056222830,62762,-77073,0,116,-115,0,40429
1749338472.111408574,62878,-77188,0,118,-115,0,40398
1749338472.162245436,62996,-77303,0,116,-116,0,40421
1749338472.218332157,63229,-77535,0,117,-116,0,40427
1749338472.275221928,63346,-77651,0,117,-116,0,40414
1749338472.331464019,63463,-77767,0,117,-115,0,40420
1749338472.383381189,63699,-78001,0,116,-116,0,40432
1749338472.436347427,63815,-78117,0,117,-115,0,40402
1749338472.487243529,63932,-78232,0,117,-116,0,40420
1749338472.540319119,64166,-78465,0,116,-115,0,40420
1749338472.597233631,64282,-78580,0,117,-116,0,40407
1749338472.654330253,64399,-78696,0,115,-116,0,40438
1749338472.708219727,64634,-78930,0,117,-116,0,40426
1749338472.765330979,64751,-79046,0,22,-26,0,40399
1749338472.819515359,64773,-79072,0,-24,21,0,40411
1749338472.874314883,64744,-79046,0,0,0,0,40415
1749338472.930301253,64744,-79046,0,-12,-11,0,40402
1749338472.981406964,64732,-79057,0,-32,-23,0,40414
1749338473.034274907,64665,-79104,0,-30,-18,0,41304
1749338473.090326054,64635,-79122,0,-29,-17,0,40409
1749338473.139224945,64606,-79139,0,-33,-19,0,40404
1749338473.194390356,64538,-79179,0,-32,-20,0,40419
1749338473.245249217,64506,-79199,0,-34,-19,0,40394
1749338473.298371899,64472,-79218,0,-34,-20,0,40423
1749338473.350222014,64404,-79257,0,-33,-21,0,40435
1749338473.406386975,64371,-79278,0,-34,-20,0,40383
1749338473.456303453,64337,-79298,0,-33,-20,0,40415
1749338473.507386702,64304,-79318,0,-34,-20,0,40839
1749338473.559452593,64238,-79357,0,-33,-22,0,40427
1749338473.607381749,64205,-79379,0,-33,-19,0,40385
1749338473.659296679,64172,-79398,0,-33,-21,0,40391
1749338473.710247910,64139,-79419,0,-32,-20,0,40691
1749338473.767416624,64074,-79459,0,-32,-22,0,40432
1749338473.824390747,64042,-79481,0,-31,-19,0,40393
1749338473.880322228,64011,-79500,0,-33,-21,0,41145
1749338473.933206930,63947,-79542,0,-32,-21,0,40409
1749338473.988344786,63915,-79563,0,-31,-20,0,40407
1749338474.043207588,63852,-79604,0,-30,-22,0,40419
1749338474.098415387,63822,-79626,0,-31,-20,0,40414
1749338474.155305511,63791,-79646,0,-30,-21,0,40428
1749338474.207431421,63730,-79688,0,-30,-21,0,40418
1749338474.262343222,63700,-79709,0,-30,-20,0,40400
1749338474.313447397,63670,-79729,0,-29,-22,0,40424
1749338474.368221458,63611,-79772,0,-30,-21,0,40441
1749338474.424531881,63581,-79793,0,-29,-21,0,40394
1749338474.480360104,63552,-79814,0,-30,-21,0,40402
1749338474.536441973,63494,-79857,0,-30,-20,0,40414
1749338474.589363045,63464,-79877,0,-29,-22,0,41667
1749338474.647441976,63435,-79899,0,-29,-22,0,40407
1749338474.705320131,63377,-79943,0,-28,-20,0,40421
1749338474.756438954,63349,-79963,0,-29,-22,0,41051
1749338474.811328404,63320,-79985,0,-28,-22,0,40409
1749338474.862465338,63264,-80028,0,-28,-21,0,40415
1749338474.914468526,63236,-80049,0,-28,-22,0,40964
1749338474.966438566,63208,-80071,0,-28,-22,0,40400
1749338475.021385127,63152,-80114,0,-28,-21,0,40420
1749338475.077457162,63124,-80135,0,-27,-23,0,41613
1749338475.127265881,63097,-80158,0,-28,-21,0,40410
1749338475.185439498,63042,-80201,0,-27,-22,0,40431
1749338475.240342651,63015,-80223,0,-28,-21,0,40934
1749338475.292388358,62987,-80244,0,-27,-22,0,40401
1749338475.346332664,62934,-80288,0,-27,-21,0,40408
1749338475.404438929,62907,-80309,0,-27,-22,0,40413
1749338475.457306576,62880,-80331,0,-27,-22,0,40411
1749338475.511479141,62827,-80374,0,-26,-22,0,40438
1749338475.564355028,62801,-80396,0,-27,-23,0,41276
1749338475.619455809,62774,-80419,0,-27,-22,0,40407
1749338475.671468812,62721,-80461,0,-26,-23,0,40417
1749338475.727453089,62695,-80484,0,-25,-22,0,40413
1749338475.775407134,62670,-80506,0,-27,-22,0,40937
1749338475.826464753,62616,-80550,0,-25,-22,0,40407
1749338475.877394299,62591,-80572,0,-25,-21,0,40392
1749338475.931433031,62566,-80593,0,-26,-23,0,40630
1749338475.987370197,62540,-80616,0,-26,-21,0,40401
1749338476.041480892,62488,-80659,0,-25,-23,0,40423
1749338476.093459562,62463,-80682,0,-25,-21,0,40391
1749338476.149446524,62438,-80703,0,-26,-23,0,40650
1749338476.204464121,62407,-80729,0,0,0,0,40413
1749338476.257504581,62407,-80729,0,0,0,0,40390
1749338476.310568541,62407,-80729,0,0,1,0,40908
1749338476.365479954,62407,-80728,0,83,-71,0,40415
1749338476.419391891,62490,-80799,0,153,-138,0,40424
1749338476.476501069,62778,-81067,0,105,-100,0,40632
1749338476.527412559,62883,-81167,0,110,-100,0,40391
1749338476.577498110,62993,-81267,0,127,-116,0,40408
1749338476.629382743,63120,-81383,0,129,-121,0,40425
1749338476.687524286,63373,-81620,0,122,-113,0,40433
1749338476.737448393,63495,-81733,0,125,-115,0,40408
1749338476.790488076,63620,-81848,0,125,-118,0,40414
1749338476.848469638,63874,-82086,0,125,-116,0,40425
1749338476.902626962,63999,-82202,0,124,-117,0,40421
1749338476.960403821,64123,-82319,0,124,-117,0,40409
1749338477.017532684,64374,-82555,0,125,-116,0,40443
1749338477.074442530,64499,-82671,0,125,-118,0,40408
1749338477.129536589,64747,-82906,0,124,-117,0,40426
1749338477.181428241,64871,-83023,0,125,-119,0,40923
1749338477.235496640,64996,-83142,0,125,-117,0,40425
1749338477.285440081,65244,-83375,0,127,-121,0,41485
1749338477.334548341,65371,-83496,0,124,-117,0,40402
1749338477.386466474,65495,-83613,0,122,-117,0,40422
1749338477.439434175,65617,-83730,0,124,-118,0,40431
1749338477.494587197,65868,-83968,0,122,-117,0,40425
1749338477.548484005,65990,-84085,0,123,-117,0,40401
1749338477.603525379,66113,-84202,0,123,-117,0,40409
1749338477.659457101,66360,-84437,0,122,-118,0,40420
1749338477.711628918,66482,-84555,0,122,-117,0,40416
1749338477.765426059,66604,-84672,0,122,-116,0,40409
1749338477.823725137,66852,-84909,0,121,-117,0,40426
1749338477.882633879,66973,-85026,0,122,-116,0,40408
1749338477.938566842,67216,-85260,0,123,-118,0,40907
1749338477.988416505,67339,-85378,0,122,-116,0,40404
1749338478.041604279,67461,-85494,0,120,-117,0,40433
1749338478.094509092,67581,-85611,0,121,-118,0,40415
1749338478.150579053,67827,-85848,0,120,-117,0,40420
1749338478.206464109,67947,-85965,0,121,-117,0,40407
1749338478.260605711,68188,-86199,0,121,-117,0,40849
1749338478.311443294,68309,-86316,0,120,-117,0,40417
1749338478.361580604,68429,-86433,0,121,-117,0,40431
1749338478.418473468,68550,-86550,0,119,-116,0,40430
1749338478.468669556,68789,-86783,0,122,-119,0,41252
1749338478.524563296,68911,-86902,0,120,-117,0,40418
1749338478.581612530,69031,-87019,0,120,-117,0,40398
1749338478.632499095,69272,-87254,0,120,-117,0,40424
1749338478.686596753,69392,-87371,0,119,-117,0,40399
1749338478.740492393,69511,-87488,0,120,-116,0,40432
1749338478.790629462,69754,-87724,0,119,-116,0,40429
1749338478.844577565,69873,-87840,0,119,-117,0,40397
1749338478.898613038,69992,-87957,0,119,-117,0,40420
1749338478.952515197,70232,-88191,0,118,-116,0,40406
1749338479.005583898,70350,-88307,0,119,-117,0,40401
1749338479.056475685,70469,-88424,0,119,-116,0,40434
1749338479.108578743,70588,-88540,0,123,-119,0,41645
1749338479.163476693,70829,-88776,0,118,-117,0,40422
1749338479.219575321,70947,-88893,0,119,-115,0,40425
1749338479.271640601,71066,-89008,0,120,-118,0,40830
1749338479.328620428,71303,-89242,0,119,-117,0,40441
1749338479.381523556,71422,-89359,0,118,-115,0,40408
1749338479.433656188,71540,-89474,0,122,-120,0,41660
1749338479.487635420,71779,-89711,0,118,-116,0,40415
1749338479.544660950,71897,-89827,0,118,-116,0,40419
1749338479.595555534,72015,-89943,0,119,-117,0,40845
1749338479.649653655,72251,-90176,0,118,-117,0,40417
1749338479.701516751,72369,-90293,0,118,-116,0,40402
1749338479.758663095,72487,-90409,0,117,-115,0,40419
1749338479.814528577,72723,-90642,0,117,-117,0,40431
1749338479.867679369,72840,-90759,0,118,-115,0,40408
1749338479.918532379,72958,-90874,0,121,-119,0,41549
1749338479.969580869,73196,-91110,0,117,-116,0,40424
1749338480.022622570,73313,-91226,0,118,-116,0,40421
1749338480.081679107,73431,-91342,0,121,-119,0,41624
1749338480.133529092,73669,-91577,0,117,-116,0,40429
1749338480.188668744,73786,-91693,0,117,-116,0,40404
1749338480.241541446,73903,-91809,0,119,-117,0,40912
1749338480.296697598,74139,-92043,0,117,-116,0,40417
1749338480.346504447,74256,-92159,0,118,-115,0,40424
1749338480.399663480,74374,-92274,0,120,-120,0,41664
1749338480.450549323,74494,-92394,0,117,-116,0,40432
1749338480.504688147,74728,-92626,0,116,-116,0,40439
1749338480.561558882,74844,-92742,0,119,-117,0,40834
1749338480.617653918,74963,-92859,0,117,-116,0,40407
1749338480.674634300,75196,-93091,0,117,-117,0,40427
1749338480.733655541,75313,-93208,0,120,-118,0,41565
1749338480.784625846,75549,-93442,0,117,-116,0,40423
1749338480.843668550,75666,-93558,0,116,-116,0,40417
1749338480.900609100,75782,-93674,0,118,-116,0,40837
1749338480.953653541,76016,-93906,0,117,-117,0,40421
1749338481.010666683,76133,-94023,0,116,-116,0,40404
1749338481.063686846,76365,-94254,0,118,-117,0,41152
1749338481.116630733,76483,-94371,0,117,-117,0,40391
1749338481.173700504,76600,-94488,0,116,-115,0,40429
1749338481.230820145,76836,-94722,0,116,-116,0,40428
1749338481.285743187,76952,-94838,0,116,-116,0,40394
1749338481.337580117,77068,-94954,0,117,-116,0,40431
1749338481.389730693,77305,-95189,0,24,-23,0,40411
1749338481.443711462,77329,-95212,0,-26,19,0,40386
1749338481.496776497,77303,-95193,0,-7,3,0,40415
1749338481.550705266,77296,-95190,0,0,0,0,41051
1749338481.604721554,77296,-95190,0,-14,-8,0,40417
1749338481.655690489,77282,-95198,0,-34,-22,0,40410
1749338481.709757721,77248,-95220,0,-38,-23,0,41603
1749338481.766620919,77180,-95262,0,-29,-16,0,40410
1749338481.825786863,77151,-95278,0,-33,-21,0,40399
1749338481.877765848,77082,-95320,0,-33,-19,0,40411
1749338481.931698636,77049,-95339,0,-33,-20,0,40400
1749338481.984584931,77016,-95359,0,-34,-20,0,40422
1749338482.039723083,76982,-95379,0,-34,-22,0,41412
1749338482.097695496,76914,-95421,0,-33,-20,0,40416
1749338482.152752908,76881,-95441,0,-34,-20,0,40422
1749338482.206615808,76814,-95482,0,-33,-21,0,40418
1749338482.260754595,76781,-95503,0,-32,-20,0,40409
1749338482.318639528,76749,-95523,0,-33,-21,0,40414
1749338482.374759434,76683,-95565,0,-32,-21,0,41008
1749338482.428720815,76651,-95586,0,-32,-21,0,40389
1749338482.482906657,76619,-95607,0,-32,-20,0,40418
1749338482.537674200,76555,-95649,0,-32,-20,0,41268
1749338482.595759650,76523,-95669,0,-31,-22,0,40396
1749338482.649786197,76461,-95712,0,-31,-20,0,40430
1749338482.700773317,76430,-95732,0,-32,-23,0,41615
1749338482.749648282,76398,-95755,0,-30,-21,0,40411
1749338482.796780905,76368,-95776,0,-31,-20,0,40410
1749338482.856932585,76307,-95818,0,-30,-22,0,40819
1749338482.910765818,76277,-95840,0,-30,-20,0,40378
1749338482.966790410,76247,-95860,0,-30,-22,0,40430
1749338483.017768159,76187,-95903,0,-29,-22,0,40430
1749338483.072765738,76158,-95925,0,-30,-21,0,40847
1749338483.121699203,76128,-95946,0,-29,-22,0,40395
1749338483.177796571,76070,-95989,0,-29,-21,0,40417
1749338483.232684429,76041,-96010,0,-29,-23,0,41145
1749338483.288840704,76012,-96033,0,-29,-21,0,40424
1749338483.342788308,75954,-96075,0,-28,-23,0,41558
1749338483.397786979,75926,-96098,0,-29,-21,0,40406
1749338483.448724951,75897,-96119,0,-28,-22,0,40411
1749338483.503796640,75841,-96162,0,-28,-23,0,40941
1749338483.555727495,75813,-96185,0,-28,-21,0,40411
1749338483.610893314,75785,-96206,0,-28,-22,0,40410
1749338483.659784242,75730,-96249,0,-28,-23,0,40418
1749338483.716804420,75702,-96272,0,-28,-21,0,41050
1749338483.773702674,75674,-96293,0,-27,-22,0,40424
1749338483.826840744,75620,-96337,0,-28,-22,0,41503
1749338483.879842019,75592,-96359,0,-28,-22,0,40396
1749338483.937772193,75564,-96381,0,-25,-22,0,40417
1749338483.989814714,75511,-96425,0,-27,-21,0,40421
1749338484.043790410,75484,-96446,0,-26,-23,0,40664
1749338484.099795057,75458,-96469,0,-27,-22,0,40410
1749338484.157902488,75404,-96513,0,-27,-22,0,40428
1749338484.216729342,75377,-96535,0,-26,-22,0,40917
1749338484.266882966,75351,-96557,0,-26,-22,0,40414
1749338484.318735248,75298,-96601,0,-26,-22,0,40405
1749338484.372835350,75272,-96623,0,-27,-23,0,41632
1749338484.427777373,75245,-96646,0,-26,-22,0,40387
1749338484.481879142,75193,-96690,0,-26,-23,0,40416
1749338484.535814190,75167,-96713,0,-26,-21,0,40945
1749338484.589852089,75141,-96734,0,-26,-23,0,40405
1749338484.642726809,75089,-96779,0,-25,-22,0,40419
1749338484.695840010,75064,-96801,0,-27,-22,0,41634
1749338484.746761074,75037,-96823,0,-25,-23,0,40397
1749338484.801867801,74986,-96868,0,-4,-4,0,40418
1749338484.854797835,74982,-96872,0,1,0,0,40933
1749338484.910961037,74983,-96872,0,0,0,0,40407
1749338484.964819548,74983,-96872,0,0,1,0,40419
1749338485.018841410,74983,-96871,0,82,-73,0,40405
1749338485.072753199,75065,-96944,0,155,-141,0,40929
1749338485.127828147,75356,-97213,0,105,-99,0,40435
1749338485.176771316,75461,-97312,0,112,-106,0,41597
1749338485.224846304,75573,-97418,0,127,-115,0,40408
1749338485.269741606,75700,-97533,0,130,-121,0,40431
1749338485.324739037,75830,-97654,0,122,-116,0,40434
1749338485.381726197,76077,-97886,0,124,-115,0,40411
1749338485.435862466,76201,-98001,0,126,-119,0,40401
1749338485.487795951,76452,-98237,0,126,-118,0,40934
1749338485.542910955,76578,-98355,0,125,-116,0,40404
1749338485.591820494,76703,-98471,0,124,-118,0,40420
1749338485.643035705,76827,-98589,0,125,-118,0,40415
1749338485.694811450,77081,-98827,0,124,-117,0,40427
1749338485.743946432,77205,-98944,0,124,-118,0,40412
1749338485.793748207,77329,-99062,0,125,-117,0,40426
1749338485.845823320,77454,-99179,0,126,-119,0,40870
1749338485.895775353,77703,-99415,0,124,-118,0,40419
1749338485.953863544,77827,-99533,0,124,-117,0,40410
1749338486.006852764,77951,-99650,0,127,-120,0,41682
1749338486.059867909,78201,-99888,0,124,-118,0,40433
1749338486.112811000,78325,-100006,0,123,-117,0,40399
1749338486.170895913,78448,-100123,0,123,-117,0,40863
1749338486.220804094,78694,-100358,0,123,-117,0,40438
1749338486.274892919,78817,-100475,0,122,-117,0,40406
1749338486.327814898,78939,-100592,0,122,-117,0,40426
1749338486.384956076,79061,-100709,0,125,-120,0,41313
1749338486.436800783,79308,-100945,0,121,-118,0,40428
1749338486.496097727,79429,-101063,0,124,-119,0,41210
1749338486.546921866,79674,-101298,0,122,-118,0,40438
1749338486.604019711,79796,-101416,0,120,-117,0,40398
1749338486.661824125,79916,-101533,0,125,-120,0,41618
1749338486.717966735,80163,-101769,0,120,-117,0,40427
1749338486.766807181,80283,-101886,0,120,-118,0,40422
1749338486.834941816,80526,-102122,0,120,-116,0,40423
1749338486.890925204,80646,-102238,0,121,-116,0,40426
1749338486.945939486,80767,-102354,0,120,-118,0,40424
1749338486.996839995,81011,-102592,0,120,-117,0,40407
1749338487.049977010,81131,-102709,0,120,-116,0,40406
1749338487.102983934,81251,-102825,0,119,-117,0,40437
1749338487.157101184,81493,-103061,0,119,-116,0,40433
1749338487.206832681,81612,-103177,0,120,-116,0,40399
1749338487.262972124,81732,-103293,0,120,-117,0,40430
1749338487.311947088,81852,-103410,0,122,-121,0,41571
1749338487.367951902,82094,-103646,0,119,-117,0,40433
1749338487.421922820,82213,-103763,0,119,-117,0,40415
1749338487.477013917,82332,-103880,0,122,-117,0,40882
1749338487.529930951,82572,-104114,0,119,-116,0,40422
1749338487.585007122,82691,-104230,0,118,-116,0,40421
1749338487.636978088,82809,-104346,0,119,-116,0,40411
1749338487.687018065,83049,-104581,0,119,-116,0,40422
1749338487.740964557,83168,-104697,0,117,-116,0,40411
1749338487.792010214,83285,-104813,0,122,-119,0,41497
1749338487.842085820,83407,-104932,0,119,-117,0,40408
1749338487.894067398,83644,-105165,0,117,-116,0,40431
1749338487.947940075,83761,-105281,0,122,-121,0,41632
1749338488.000984480,83883,-105402,0,119,-115,0,40421
1749338488.052999705,84120,-105633,0,118,-117,0,40430
1749338488.107017586,84238,-105750,0,118,-117,0,40887
1749338488.162049275,84356,-105867,0,119,-115,0,40418
1749338488.218891140,84593,-106098,0,117,-116,0,40420
1749338488.275002601,84710,-106214,0,122,-119,0,41587
1749338488.322899998,84832,-106333,0,117,-116,0,40410
1749338488.379002996,85068,-106566,0,117,-115,0,40437
1749338488.430917407,85185,-106681,0,118,-118,0,40923
1749338488.484016496,85303,-106799,0,119,-116,0,40425
1749338488.540981249,85539,-107031,0,117,-116,0,40424
1749338488.594032635,85656,-107147,0,121,-120,0,41571
1749338488.645003181,85777,-107267,0,118,-115,0,40426
1749338488.701045754,85895,-107382,0,117,-116,0,40436
1749338488.753926900,86130,-107615,0,118,-117,0,40904
1749338488.809215125,86248,-107732,0,117,-116,0,40410
1749338488.862127216,86482,-107963,0,118,-117,0,40431
1749338488.921095235,86600,-108080,0,117,-116,0,40407
1749338488.973990529,86717,-108196,0,118,-118,0,41152
1749338489.032061998,86952,-108429,0,117,-117,0,40430
1749338489.084950440,87069,-108546,0,119,-119,0,41337
1749338489.140087574,87188,-108665,0,117,-115,0,40408
1749338489.189961107,87422,-108896,0,116,-116,0,40434
1749338489.240029769,87538,-109012,0,121,-120,0,41600
1749338489.293997317,87659,-109132,0,116,-115,0,40418
1749338489.351055291,87775,-109247,0,117,-116,0,40416
1749338489.405974500,88009,-109479,0,118,-118,0,40971
1749338489.460071787,88127,-109597,0,116,-115,0,40397
1749338489.519043584,88360,-109828,0,117,-116,0,40422
1749338489.575060454,88477,-109944,0,117,-116,0,40389
1749338489.626027629,88594,-110060,0,117,-116,0,40731
1749338489.683053178,88827,-110292,0,117,-116,0,40425
1749338489.735020015,88944,-110408,0,116,-115,0,40409
1749338489.785236583,89060,-110523,0,118,-118,0,40885
1749338489.843090386,89295,-110756,0,116,-115,0,40427
1749338489.899106793,89411,-110871,0,117,-116,0,40414
1749338489.951054981,89528,-110987,0,119,-119,0,41454
1749338490.003078817,89763,-111222,0,117,-115,0,40416
1749338490.054960932,89880,-111337,0,23,-25,0,40396
1749338490.111115375,89903,-111362,0,-25,22,0,41553
1749338490.166048676,89872,-111334,0,0,0,0,40423
1749338490.220126019,89872,-111334,0,0,0,0,40385
1749338490.276067759,89872,-111334,0,0,0,0,40417
1749338490.331129041,89854,-111339,0,-37,-18,0,40411
1749338490.386977615,89817,-111357,0,-36,-24,0,40408
1749338490.438130975,89781,-111381,0,-30,-20,0,41572
1749338490.496088666,89722,-111416,0,-34,-19,0,40421
1749338490.554131246,89688,-111435,0,-35,-21,0,40400
1749338490.611059185,89619,-111475,0,-32,-20,0,40445
1749338490.663116558,89587,-111495,0,-34,-19,0,40384
1749338490.714057270,89553,-111514,0,-34,-21,0,40423
1749338490.767102953,89519,-111535,0,-34,-20,0,40404
1749338490.816916338,89452,-111575,0,-34,-21,0,40419
1749338490.877128814,89418,-111596,0,-33,-20,0,40391
1749338490.933035961,89385,-111616,0,-33,-20,0,40416
1749338490.988106021,89319,-111657,0,-33,-22,0,40435
1749338491.039077419,89286,-111679,0,-33,-20,0,40399
1749338491.091141755,89253,-111699,0,-32,-21,0,41173
1749338491.146084519,89189,-111740,0,-32,-22,0,40417
1749338491.199158516,89157,-111762,0,-32,-20,0,40409
1749338491.252124532,89125,-111782,0,-31,-21,0,40418
1749338491.303164133,89063,-111825,0,-32,-20,0,40423
1749338491.356051575,89031,-111845,0,-31,-21,0,40396
1749338491.411121024,89000,-111866,0,-31,-21,0,40417
1749338491.465197960,88939,-111909,0,-31,-21,0,40407
1749338491.520242501,88908,-111930,0,-30,-20,0,40413
1749338491.571080733,88878,-111950,0,-30,-22,0,40399
1749338491.628217781,88817,-111993,0,-29,-22,0,41240
1749338491.679108512,88788,-112015,0,-30,-21,0,40409
1749338491.736221375,88758,-112036,0,-30,-21,0,40420
1749338491.790055442,88698,-112079,0,-30,-22,0,40418
1749338491.842263926,88668,-112101,0,-28,-21,0,40380
