ros_time,ticks_L,ticks_R,ticks_UNUSED,delta_ticks_L,delta_ticks_R,delta_ticks_UNUSED,delta_time_usec
1749337096.440947669,235560,-344893,0,0,0,0,40480
1749337096.496902648,235560,-344893,0,0,0,0,40284
1749337096.551842336,235560,-344893,0,0,0,0,40290
1749337096.604813812,235560,-344893,0,0,0,0,40296
1749337096.655964910,235560,-344893,0,0,0,0,41087
1749337096.712781236,235560,-344893,0,0,0,0,40291
1749337096.763806075,235560,-344893,0,0,0,0,40293
1749337096.815788927,235560,-344893,0,0,0,0,40274
1749337096.871709814,235560,-344893,0,0,0,0,40414
1749337096.925826247,235560,-344893,0,0,0,0,40290
1749337096.982699647,235560,-344893,0,0,0,0,40284
1749337097.042820252,235560,-344893,0,0,0,0,40309
1749337097.096852557,235560,-344893,0,0,0,0,40293
1749337097.150914842,235560,-344893,0,0,0,0,40283
1749337097.204829017,235560,-344893,0,0,0,0,40285
1749337097.259927168,235560,-344893,0,0,0,0,40290
1749337097.310909229,235560,-344893,0,0,0,0,40281
1749337097.367840369,235560,-344893,0,0,0,0,40284
1749337097.420758865,235560,-344893,0,0,0,0,40302
1749337097.476111865,235560,-344893,0,0,0,0,40286
1749337097.531931993,235560,-344893,0,0,0,0,40279
1749337097.589852536,235560,-344893,0,0,0,0,40297
1749337097.643884174,235560,-344893,0,0,0,0,41114
1749337097.694932864,235560,-344893,0,0,0,0,40301
1749337097.743794603,235560,-344893,0,0,0,0,40287
1749337097.795868936,235560,-344893,0,0,0,0,40305
1749337097.850807902,235560,-344893,0,0,0,0,41287
1749337097.907878061,235560,-344893,0,0,0,0,40297
1749337097.963827447,235560,-344893,0,0,0,0,40284
1749337098.018892727,235560,-344893,0,0,0,0,40289
1749337098.076834048,235560,-344893,0,0,0,0,40271
1749337098.134879923,235560,-344893,0,0,0,0,40302
1749337098.189835630,235560,-344893,0,0,0,0,41070
1749337098.244865928,235560,-344893,0,0,0,0,40283
1749337098.299802357,235560,-344893,0,0,0,0,40287
1749337098.353887828,235560,-344893,0,0,0,0,41205
1749337098.411826407,235560,-344893,0,0,0,0,40286
1749337098.469765283,235560,-344893,0,0,0,0,40284
1749337098.523984086,235560,-344893,0,0,0,0,40277
1749337098.578845960,235560,-344893,0,0,0,0,41438
1749337098.633885722,235560,-344893,0,78,-73,0,40434
1749337098.683838640,235638,-344966,0,147,-138,0,40422
1749337098.736819247,235785,-345104,0,135,-130,0,41407
1749337098.791823101,236026,-345335,0,107,-104,0,40440
1749337098.848922592,236133,-345439,0,123,-117,0,40407
1749337098.902808620,236256,-345556,0,129,-123,0,41437
1749337098.960010018,236505,-345795,0,119,-114,0,40424
1749337099.013869156,236624,-345909,0,121,-117,0,40424
1749337099.064953495,236745,-346026,0,125,-120,0,40872
1749337099.120819196,236994,-346264,0,121,-118,0,40415
1749337099.174929685,237115,-346382,0,121,-117,0,40408
1749337099.227853384,237236,-346499,0,123,-119,0,40429
1749337099.280893768,237484,-346738,0,122,-118,0,40433
1749337099.333824263,237606,-346856,0,121,-118,0,40409
1749337099.390167277,237727,-346974,0,122,-119,0,40399
1749337099.446907418,237974,-347214,0,122,-120,0,40427
1749337099.501913902,238096,-347334,0,122,-119,0,40419
1749337099.555858874,238218,-347453,0,122,-118,0,40417
1749337099.611931130,238464,-347694,0,122,-120,0,40433
1749337099.667864516,238586,-347814,0,121,-118,0,40400
1749337099.723955439,238831,-348053,0,121,-118,0,40415
1749337099.776877101,238952,-348171,0,121,-119,0,40400
1749337099.836911299,239073,-348290,0,121,-120,0,40444
1749337099.891866857,239318,-348532,0,122,-119,0,40433
1749337099.947108655,239440,-348651,0,120,-120,0,40389
1749337099.999875040,239560,-348771,0,120,-118,0,40423
1749337100.056909995,239801,-349008,0,119,-119,0,40424
1749337100.107032153,239920,-349127,0,121,-119,0,40413
1749337100.159995092,240041,-349246,0,120,-119,0,40401
1749337100.212943606,240281,-349484,0,119,-119,0,40539
1749337100.268920677,240400,-349603,0,120,-118,0,40408
1749337100.321982672,240520,-349721,0,120,-119,0,40437
1749337100.376956600,240759,-349959,0,121,-121,0,41115
1749337100.432037288,240880,-350080,0,120,-118,0,40407
1749337100.482350390,241000,-350198,0,119,-118,0,40410
1749337100.538097518,241238,-350435,0,122,-122,0,41444
1749337100.592947780,241360,-350557,0,121,-118,0,40413
1749337100.645036928,241481,-350675,0,118,-118,0,40425
1749337100.696988558,241718,-350912,0,120,-120,0,40856
1749337100.750031886,241838,-351032,0,120,-118,0,40387
1749337100.800946966,241958,-351150,0,118,-117,0,40427
1749337100.855007103,242076,-351267,0,119,-119,0,40429
1749337100.911814781,242313,-351504,0,121,-119,0,40710
1749337100.965030349,242434,-351623,0,117,-118,0,40402
1749337101.013906644,242551,-351741,0,119,-118,0,40423
1749337101.066031217,242789,-351977,0,119,-120,0,40862
1749337101.119004416,242908,-352097,0,118,-117,0,40415
1749337101.172025484,243026,-352214,0,119,-118,0,40431
1749337101.224946628,243262,-352450,0,118,-119,0,40416
1749337101.279051691,243380,-352569,0,120,-119,0,40966
1749337101.330966691,243500,-352688,0,118,-116,0,40427
1749337101.384035686,243735,-352923,0,121,-122,0,41487
1749337101.436954162,243856,-353045,0,117,-117,0,40393
1749337101.493063159,243973,-353162,0,117,-116,0,40416
1749337101.546923149,244090,-353278,0,118,-118,0,40431
1749337101.596990215,244326,-353515,0,119,-119,0,41049
1749337101.648963419,244445,-353634,0,117,-117,0,40407
1749337101.705986855,244562,-353751,0,118,-117,0,40415
1749337101.758933387,244800,-353990,0,118,-117,0,40421
1749337101.816075434,244918,-354107,0,117,-117,0,40419
1749337101.872943686,245035,-354224,0,117,-118,0,40413
1749337101.928046280,245273,-354463,0,118,-117,0,40432
1749337101.981925530,245391,-354580,0,116,-117,0,40407
1749337102.038062970,245625,-354814,0,118,-117,0,40782
1749337102.091944257,245743,-354931,0,117,-118,0,40386
1749337102.145089436,245860,-355049,0,117,-117,0,40436
1749337102.198925722,246094,-355283,0,120,-120,0,41619
1749337102.253082618,246214,-355403,0,117,-118,0,40403
1749337102.308908598,246331,-355521,0,117,-117,0,40431
1749337102.363096031,246565,-355755,0,118,-117,0,40912
1749337102.412915468,246683,-355872,0,117,-118,0,40419
1749337102.466041314,246800,-355990,0,116,-117,0,40418
1749337102.521926738,246916,-356107,0,117,-117,0,40435
1749337102.571022661,247150,-356340,0,118,-120,0,41003
1749337102.623983952,247268,-356460,0,116,-116,0,40415
1749337102.680922278,247384,-356576,0,117,-117,0,40411
1749337102.736095057,247620,-356813,0,117,-117,0,40425
1749337102.791935814,247737,-356930,0,116,-116,0,40408
1749337102.846187191,247853,-357046,0,116,-117,0,40421
1749337102.899062057,248086,-357281,0,117,-116,0,40650
1749337102.953094083,248203,-357397,0,116,-117,0,40412
1749337103.012980837,248319,-357514,0,116,-117,0,40404
1749337103.066116109,248551,-357747,0,118,-119,0,40917
1749337103.115929862,248669,-357866,0,117,-116,0,40416
1749337103.169092633,248786,-357982,0,116,-117,0,40423
1749337103.227013361,249018,-358215,0,120,-121,0,41566
1749337103.282120844,249138,-358336,0,116,-116,0,40408
1749337103.337017736,249371,-358567,0,116,-117,0,40426
1749337103.396098421,249487,-358684,0,117,-118,0,40924
1749337103.451032516,249604,-358802,0,116,-117,0,40430
1749337103.500093976,249837,-359035,0,116,-116,0,40445
1749337103.553006675,249953,-359151,0,120,-121,0,41565
1749337103.605967448,250073,-359272,0,115,-116,0,40422
1749337103.663125105,250305,-359503,0,25,-28,0,40414
1749337103.722093124,250330,-359531,0,-25,14,0,40935
1749337103.780129240,250305,-359517,0,-6,3,0,40399
1749337103.833171364,250299,-359514,0,0,0,0,40429
1749337103.889124750,250299,-359514,0,0,0,0,40387
1749337103.941067213,250280,-359521,0,-36,-21,0,40403
1749337103.997126136,250244,-359542,0,-34,-24,0,40385
1749337104.054095017,250210,-359566,0,-30,-18,0,41623
1749337104.110119125,250151,-359601,0,-34,-21,0,40443
1749337104.163020305,250117,-359622,0,-34,-20,0,40389
1749337104.220112463,250083,-359642,0,-32,-20,0,40406
1749337104.273044551,250018,-359683,0,-33,-20,0,40420
1749337104.330162523,249985,-359703,0,-34,-21,0,40409
1749337104.383058870,249951,-359724,0,-33,-19,0,40407
1749337104.440129640,249886,-359765,0,-34,-21,0,40423
1749337104.493055635,249852,-359786,0,-32,-21,0,40412
1749337104.549237094,249820,-359807,0,-33,-21,0,40406
1749337104.601078761,249754,-359849,0,-32,-22,0,40435
1749337104.657224461,249722,-359871,0,-32,-20,0,40396
1749337104.709111480,249690,-359891,0,-31,-22,0,40408
1749337104.761333109,249626,-359933,0,-32,-23,0,40421
1749337104.814113660,249594,-359956,0,-30,-21,0,40414
1749337104.873145715,249564,-359977,0,-31,-20,0,40398
1749337104.933086525,249500,-360020,0,-30,-21,0,40422
1749337104.984260473,249470,-360041,0,-30,-22,0,40405
1749337105.040167490,249440,-360063,0,-32,-21,0,40417
1749337105.094238071,249378,-360106,0,-30,-21,0,40404
1749337105.147107455,249348,-360127,0,-30,-22,0,40412
1749337105.200200616,249318,-360149,0,-30,-22,0,40416
1749337105.256297001,249258,-360192,0,-30,-22,0,40913
1749337105.307264914,249228,-360214,0,-29,-21,0,40398
1749337105.361131034,249199,-360235,0,-30,-23,0,40423
1749337105.420116126,249139,-360279,0,-29,-23,0,40408
1749337105.472304366,249110,-360302,0,-28,-21,0,40414
1749337105.527201647,249082,-360323,0,-29,-22,0,40399
1749337105.582088946,249023,-360367,0,-28,-21,0,40552
1749337105.632236252,248995,-360388,0,-28,-23,0,40416
1749337105.683119777,248967,-360411,0,-28,-21,0,40420
1749337105.736229419,248910,-360454,0,-28,-21,0,40892
1749337105.793085541,248882,-360475,0,-28,-23,0,40395
1749337105.846316590,248854,-360498,0,-28,-22,0,40404
1749337105.903130434,248799,-360541,0,-29,-23,0,41645
1749337105.956305039,248770,-360564,0,-27,-22,0,40413
1749337106.014157026,248743,-360586,0,-28,-22,0,40411
1749337106.071282073,248688,-360629,0,-28,-23,0,40956
1749337106.124130920,248660,-360652,0,-26,-22,0,40398
1749337106.180269028,248606,-360696,0,-27,-21,0,40410
1749337106.228062624,248579,-360717,0,-27,-24,0,41633
1749337106.285341948,248552,-360741,0,-27,-21,0,40431
1749337106.339152030,248499,-360785,0,-28,-21,0,40410
1749337106.396297929,248471,-360806,0,-26,-23,0,40895
1749337106.444129655,248445,-360829,0,-26,-22,0,40420
1749337106.513282989,248393,-360873,0,-28,-22,0,40421
1749337106.562105339,248365,-360895,0,-25,-22,0,40421
1749337106.617314118,248340,-360917,0,-26,-23,0,40918
1749337106.676199322,248288,-360961,0,-27,-23,0,40412
1749337106.734274567,248261,-360984,0,-25,-22,0,40393
1749337106.790133195,248210,-361029,0,-26,-21,0,40406
1749337106.842301157,248184,-361050,0,-26,-23,0,40418
1749337106.897403529,248158,-361073,0,-25,-21,0,40396
1749337106.955275757,248107,-361118,0,-26,-22,0,40419
1749337107.010160297,248081,-361140,0,-25,-22,0,40393
1749337107.062340944,248056,-361162,0,-26,-22,0,40410
1749337107.118141238,248005,-361206,0,-6,-4,0,40415
1749337107.174319605,247999,-361210,0,0,0,0,40405
1749337107.227464895,247999,-361210,0,0,0,0,40393
1749337107.282349138,247999,-361210,0,0,0,0,41116
1749337107.340255699,247999,-361210,0,0,0,0,40412
1749337107.396333288,248081,-361278,0,150,-134,0,40430
1749337107.444243773,248231,-361412,0,136,-131,0,41416
1749337107.509333351,248367,-361543,0,106,-101,0,40415
1749337107.566244640,248583,-361746,0,124,-114,0,40426
1749337107.619355800,248707,-361860,0,132,-124,0,41576
1749337107.675263020,248839,-361984,0,123,-115,0,40408
1749337107.729450601,249082,-362212,0,124,-115,0,40441
1749337107.782352466,249206,-362327,0,127,-120,0,40904
1749337107.838366259,249333,-362447,0,125,-117,0,40398
1749337107.890297556,249581,-362680,0,124,-117,0,40419
1749337107.947361603,249705,-362797,0,125,-118,0,40426
1749337108.001256130,249830,-362915,0,126,-120,0,41059
1749337108.058345676,250080,-363151,0,125,-118,0,40431
1749337108.106217050,250205,-363269,0,126,-120,0,41361
1749337108.157373925,250331,-363389,0,124,-118,0,40420
1749337108.211277044,250579,-363624,0,123,-117,0,40423
1749337108.265390403,250702,-363741,0,125,-119,0,40968
1749337108.317253367,250827,-363860,0,123,-117,0,40521
1749337108.376378588,251074,-364095,0,122,-117,0,40423
1749337108.431285294,251196,-364212,0,124,-119,0,40855
1749337108.482425317,251320,-364331,0,122,-117,0,40406
1749337108.533433822,251566,-364566,0,121,-118,0,40440
1749337108.582449153,251687,-364684,0,126,-120,0,41618
1749337108.640326344,251813,-364804,0,122,-117,0,40412
1749337108.699354732,252057,-365038,0,121,-118,0,40419
1749337108.753363184,252178,-365156,0,124,-119,0,40929
1749337108.801246706,252302,-365275,0,122,-117,0,40408
1749337108.858358271,252545,-365508,0,121,-118,0,40437
1749337108.908293763,252666,-365626,0,125,-121,0,41561
1749337108.965385143,252791,-365747,0,122,-118,0,40426
1749337109.018461785,253033,-365982,0,121,-117,0,40435
1749337109.074413912,253154,-366099,0,123,-119,0,40940
1749337109.126428708,253277,-366218,0,120,-117,0,40415
1749337109.188373248,253518,-366452,0,121,-118,0,40419
1749337109.246360530,253639,-366570,0,120,-117,0,40400
1749337109.301462532,253759,-366687,0,121,-118,0,40818
1749337109.355674131,254000,-366923,0,121,-117,0,40429
1749337109.407489002,254121,-367040,0,120,-116,0,40407
1749337109.467453293,254241,-367156,0,121,-119,0,40893
1749337109.518441020,254481,-367393,0,119,-117,0,40421
1749337109.567393184,254600,-367510,0,121,-116,0,40409
1749337109.618487893,254721,-367626,0,122,-121,0,41383
1749337109.669459491,254962,-367864,0,118,-117,0,40417
1749337109.722408856,255080,-367981,0,119,-117,0,40398
1749337109.777339636,255199,-368098,0,121,-118,0,40889
1749337109.829457432,255440,-368333,0,118,-118,0,40443
1749337109.886374628,255558,-368451,0,118,-116,0,40399
1749337109.936550637,255676,-368567,0,122,-120,0,41572
1749337109.993339852,255798,-368687,0,120,-117,0,40427
1749337110.049402349,256036,-368921,0,119,-117,0,40406
1749337110.100328095,256155,-369038,0,119,-118,0,40918
1749337110.150364346,256393,-369273,0,119,-117,0,40437
1749337110.203394748,256512,-369390,0,118,-116,0,40408
1749337110.261422067,256630,-369506,0,122,-121,0,41657
1749337110.318331392,256870,-369744,0,118,-117,0,40425
1749337110.371483034,256988,-369861,0,119,-116,0,40403
1749337110.425435283,257107,-369977,0,120,-118,0,41112
1749337110.482561274,257345,-370213,0,118,-117,0,40426
1749337110.533356298,257463,-370330,0,118,-116,0,40391
1749337110.586506848,257581,-370446,0,122,-120,0,41765
1749337110.637403520,257703,-370566,0,117,-117,0,40419
1749337110.693563905,257939,-370800,0,121,-119,0,41568
1749337110.751438244,258060,-370919,0,116,-117,0,40414
1749337110.807498740,258294,-371152,0,118,-116,0,40416
1749337110.861403396,258412,-371268,0,121,-120,0,41613
1749337110.914488409,258533,-371388,0,117,-117,0,40422
1749337110.971391179,258767,-371621,0,117,-116,0,40427
1749337111.018538482,258884,-371737,0,119,-119,0,40908
1749337111.065381547,259003,-371856,0,117,-116,0,40429
1749337111.122364668,259120,-371972,0,117,-115,0,40417
1749337111.176374601,259354,-372203,0,117,-117,0,40424
1749337111.236529261,259471,-372320,0,118,-117,0,40586
1749337111.293423087,259589,-372437,0,117,-115,0,40411
1749337111.350459689,259822,-372668,0,118,-118,0,40432
1749337111.402530263,259940,-372786,0,118,-117,0,41067
1749337111.459463551,260176,-373019,0,116,-116,0,40440
1749337111.511491439,260292,-373135,0,117,-116,0,40414
1749337111.570468531,260409,-373251,0,120,-120,0,41398
1749337111.623408304,260646,-373486,0,116,-116,0,40417
1749337111.680523573,260762,-373602,0,118,-116,0,40415
1749337111.730333695,260880,-373718,0,117,-118,0,40951
1749337111.782652119,261114,-373953,0,117,-115,0,40419
1749337111.837438104,261231,-374068,0,116,-116,0,40396
1749337111.896540103,261347,-374184,0,117,-117,0,40419
1749337111.948516306,261582,-374418,0,116,-116,0,40430
1749337112.002560647,261698,-374534,0,117,-116,0,40400
1749337112.061515202,261815,-374650,0,119,-120,0,41519
1749337112.118584953,262051,-374885,0,116,-117,0,40424
1749337112.175576370,262167,-375002,0,116,-116,0,40409
1749337112.228613290,262400,-375233,0,117,-118,0,40990
1749337112.280494735,262517,-375351,0,116,-116,0,40418
1749337112.338540073,262633,-375467,0,117,-116,0,40415
1749337112.391591826,262772,-375607,0,-23,16,0,40397
1749337112.447593545,262749,-375591,0,-5,3,0,40381
1749337112.502547881,262744,-375588,0,0,0,0,40422
1749337112.553589775,262744,-375588,0,-14,-10,0,40425
1749337112.610454378,262730,-375598,0,-34,-22,0,40401
1749337112.663562631,262696,-375620,0,-35,-23,0,40406
1749337112.716416552,262633,-375660,0,-30,-18,0,40416
1749337112.772522567,262603,-375678,0,-32,-20,0,40408
1749337112.825457784,262571,-375698,0,-34,-20,0,40416
1749337112.880581859,262503,-375738,0,-32,-21,0,40428
1749337112.933550372,262471,-375759,0,-33,-20,0,40393
1749337112.987552861,262438,-375779,0,-33,-20,0,40427
1749337113.042498919,262371,-375820,0,-33,-20,0,40407
1749337113.094573530,262338,-375840,0,-32,-21,0,40409
1749337113.143441602,262306,-375861,0,-34,-21,0,40412
1749337113.199599764,262272,-375882,0,-32,-21,0,40418
1749337113.253640624,262208,-375923,0,-32,-21,0,40408
1749337113.307611946,262176,-375944,0,-33,-21,0,40415
1749337113.367567737,262143,-375965,0,-33,-22,0,41640
1749337113.421720558,262078,-376008,0,-31,-20,0,40409
1749337113.475498882,262047,-376028,0,-31,-22,0,40400
1749337113.528629449,261984,-376070,0,-32,-22,0,40556
1749337113.580586449,261952,-376092,0,-30,-21,0,40413
1749337113.635588100,261922,-376113,0,-31,-21,0,40411
1749337113.691558208,261860,-376155,0,-30,-22,0,40857
1749337113.747613426,261830,-376177,0,-31,-21,0,40383
1749337113.798526321,261799,-376198,0,-30,-21,0,40430
1749337113.852617217,261739,-376240,0,-30,-21,0,40430
1749337113.908542658,261709,-376261,0,-29,-23,0,40738
1749337113.964644173,261680,-376284,0,-30,-20,0,40405
1749337114.021635553,261620,-376325,0,-29,-22,0,40413
1749337114.074584659,261591,-376347,0,-28,-22,0,40862
1749337114.131487521,261563,-376369,0,-30,-21,0,40398
1749337114.184711792,261503,-376410,0,-27,-23,0,40420
1749337114.238569375,261476,-376433,0,-29,-21,0,40393
1749337114.291634535,261447,-376454,0,-29,-21,0,40717
1749337114.348560083,261390,-376497,0,-29,-21,0,40418
1749337114.405622685,261361,-376518,0,-28,-22,0,40410
1749337114.462556010,261305,-376562,0,-28,-21,0,40422
1749337114.519664205,261277,-376583,0,-27,-21,0,40390
1749337114.572640106,261250,-376604,0,-29,-23,0,40397
1749337114.626681391,261194,-376648,0,-28,-22,0,40921
1749337114.679601460,261166,-376670,0,-27,-21,0,40401
1749337114.736665303,261139,-376691,0,-28,-22,0,40405
1749337114.789661983,261084,-376735,0,-27,-22,0,40419
1749337114.846665067,261057,-376757,0,-28,-22,0,40401
1749337114.897573906,261029,-376779,0,-26,-21,0,40407
1749337114.954659841,260976,-376822,0,-27,-22,0,40666
1749337115.010540709,260949,-376844,0,-26,-22,0,40404
1749337115.065729802,260896,-376887,0,-26,-23,0,40416
1749337115.116618327,260870,-376910,0,-28,-22,0,41192
1749337115.170671037,260842,-376932,0,-25,-21,0,40407
1749337115.222573149,260817,-376953,0,-27,-22,0,40417
1749337115.278655682,260764,-376997,0,-27,-23,0,41586
1749337115.332615393,260737,-377020,0,-26,-21,0,40408
1749337115.389637496,260711,-377041,0,-25,-22,0,40406
1749337115.443883909,260659,-377086,0,-26,-22,0,41674
1749337115.501679915,260633,-377108,0,-26,-22,0,40402
1749337115.557556579,260582,-377152,0,-26,-22,0,40416
1749337115.613705816,260556,-377174,0,-26,-22,0,41358
1749337115.666582088,260530,-377196,0,-26,-22,0,40416
1749337115.717844147,260479,-377241,0,-25,-21,0,40418
1749337115.771596267,260454,-377262,0,-6,-4,0,40905
1749337115.830720136,260448,-377266,0,0,0,0,40398
1749337115.892625787,260448,-377266,0,0,0,0,40434
1749337115.951697730,260448,-377266,0,0,0,0,40392
1749337116.010593026,260448,-377266,0,82,-68,0,40428
1749337116.063765279,260530,-377334,0,152,-135,0,40406
1749337116.111688244,260682,-377469,0,137,-131,0,41495
1749337116.163776947,260924,-377701,0,110,-102,0,40432
1749337116.215666633,261034,-377803,0,126,-113,0,40409
1749337116.265714828,261160,-377916,0,131,-123,0,41337
1749337116.319646206,261291,-378039,0,122,-115,0,40422
1749337116.370750803,261535,-378267,0,127,-118,0,41546
1749337116.424655052,261662,-378385,0,125,-117,0,40397
1749337116.480732696,261787,-378502,0,125,-117,0,40415
1749337116.529561583,262036,-378736,0,128,-119,0,41546
1749337116.589694706,262164,-378855,0,124,-117,0,40429
1749337116.642641163,262288,-378972,0,125,-118,0,40422
1749337116.701723310,262537,-379206,0,125,-119,0,40960
1749337116.751664080,262662,-379325,0,125,-117,0,40407
1749337116.804800129,262787,-379442,0,124,-117,0,40418
1749337116.855679894,263034,-379676,0,127,-121,0,41563
1749337116.912735496,263161,-379797,0,123,-117,0,40414
1749337116.966640763,263284,-379914,0,124,-117,0,40423
1749337117.023790513,263531,-380147,0,125,-120,0,40964
1749337117.071627553,263656,-380267,0,123,-117,0,40402
1749337117.123756737,263779,-380384,0,122,-116,0,40410
1749337117.180614767,263901,-380500,0,123,-118,0,40425
1749337117.232795265,264148,-380734,0,123,-118,0,40954
1749337117.283720567,264271,-380852,0,122,-117,0,40403
1749337117.343787005,264393,-380969,0,122,-118,0,40437
1749337117.394687806,264642,-381207,0,121,-116,0,40437
1749337117.446865175,264763,-381323,0,121,-118,0,40399
1749337117.505681101,264884,-381441,0,123,-117,0,40424
1749337117.557015475,265128,-381675,0,121,-117,0,40587
1749337117.609756267,265249,-381792,0,122,-118,0,40410
1749337117.660791827,265371,-381910,0,121,-116,0,40423
1749337117.716700158,265613,-382143,0,122,-118,0,40835
1749337117.770843831,265735,-382261,0,120,-118,0,40400
1749337117.828687836,265855,-382379,0,121,-116,0,40428
1749337117.887810575,266096,-382612,0,121,-117,0,40420
1749337117.942829596,266217,-382729,0,120,-118,0,40622
1749337118.001782243,266457,-382963,0,120,-117,0,40432
1749337118.057696500,266577,-383080,0,120,-117,0,40422
1749337118.113797829,266818,-383315,0,119,-117,0,40430
1749337118.167675763,266937,-383432,0,120,-117,0,40405
1749337118.224806031,267057,-383549,0,120,-117,0,40426
1749337118.277741748,267300,-383785,0,119,-117,0,40420
1749337118.335819604,267419,-383902,0,119,-118,0,40403
1749337118.391748175,267538,-384020,0,120,-116,0,40424
1749337118.448809925,267779,-384254,0,118,-117,0,40405
1749337118.499752190,267897,-384371,0,120,-117,0,40408
1749337118.557820416,268017,-384488,0,119,-116,0,40411
1749337118.610748022,268255,-384720,0,119,-119,0,40974
1749337118.664848399,268374,-384839,0,120,-117,0,40390
1749337118.720804007,268494,-384956,0,119,-116,0,40430
1749337118.773828242,268734,-385192,0,119,-117,0,40415
1749337118.828826244,268853,-385309,0,118,-117,0,40416
1749337118.880866799,269090,-385542,0,122,-120,0,41549
1749337118.928794672,269212,-385662,0,118,-116,0,40397
1749337118.980826245,269330,-385778,0,117,-116,0,40416
1749337119.030739145,269447,-385894,0,118,-118,0,40425
1749337119.083859842,269565,-386012,0,120,-118,0,41018
1749337119.135749453,269804,-386246,0,117,-117,0,40416
1749337119.189876978,269921,-386363,0,117,-116,0,40399
1749337119.245827827,270038,-386479,0,122,-120,0,41589
1749337119.301843675,270278,-386716,0,117,-116,0,40444
1749337119.360814545,270395,-386832,0,117,-116,0,40405
1749337119.418974530,270631,-387066,0,118,-116,0,40440
1749337119.471930154,270749,-387182,0,117,-117,0,40399
1749337119.529850122,270866,-387299,0,117,-116,0,40416
1749337119.582753635,271104,-387534,0,118,-116,0,40418
1749337119.636891956,271222,-387650,0,117,-116,0,40416
1749337119.689775211,271339,-387766,0,118,-117,0,40410
1749337119.744972378,271576,-388001,0,116,-115,0,40419
1749337119.799809196,271692,-388116,0,118,-116,0,40399
1749337119.859894874,271810,-388232,0,118,-117,0,40420
1749337119.912800147,272044,-388465,0,119,-118,0,40880
1749337119.966924672,272163,-388583,0,117,-115,0,40390
1749337120.021847100,272397,-388814,0,120,-120,0,41574
1749337120.073976710,272517,-388934,0,117,-115,0,40394
1749337120.127793811,272634,-389049,0,117,-117,0,40419
1749337120.180905360,272751,-389166,0,117,-116,0,40434
1749337120.231798162,272984,-389398,0,118,-116,0,40693
1749337120.282918462,273102,-389514,0,117,-117,0,40404
1749337120.335820216,273219,-389631,0,116,-115,0,40423
1749337120.383875107,273452,-389863,0,117,-117,0,40854
1749337120.441037486,273569,-389980,0,117,-115,0,40412
1749337120.491948232,273686,-390095,0,116,-117,0,40423
1749337120.547933155,273802,-390212,0,117,-116,0,40432
1749337120.599837044,274038,-390448,0,117,-115,0,40415
1749337120.652983204,274155,-390563,0,116,-116,0,40418
1749337120.710889394,274271,-390679,0,116,-117,0,40417
1749337120.767915811,274505,-390912,0,117,-117,0,40423
1749337120.825804871,274622,-391029,0,116,-116,0,40424
1749337120.883943708,274854,-391260,0,119,-119,0,41584
1749337120.937814457,274973,-391379,0,118,-117,0,40418
1749337120.991964852,275091,-391496,0,115,-115,0,40415
1749337121.041960159,275229,-391638,0,-24,18,0,40908
1749337121.099948237,275205,-391620,0,-5,4,0,40375
1749337121.149798600,275200,-391616,0,0,0,0,40401
1749337121.202857372,275200,-391616,0,-13,-8,0,40428
1749337121.253964357,275187,-391624,0,-35,-23,0,41017
1749337121.306984610,275152,-391647,0,-36,-23,0,40396
1749337121.358910277,275087,-391687,0,-30,-18,0,41487
1749337121.419926358,275057,-391705,0,-32,-20,0,40392
1749337121.470865048,275025,-391725,0,-34,-22,0,40427
1749337121.523980449,274957,-391765,0,-32,-21,0,40423
1749337121.572895817,274925,-391786,0,-33,-20,0,40722
1749337121.631965241,274892,-391806,0,-34,-21,0,40413
1749337121.681844956,274825,-391847,0,-33,-20,0,40420
1749337121.739966200,274792,-391867,0,-33,-21,0,40899
1749337121.789823785,274759,-391888,0,-33,-21,0,40414
1749337121.841998006,274726,-391909,0,-32,-22,0,40422
1749337121.890884652,274661,-391950,0,-33,-22,0,41585
1749337121.949969724,274628,-391972,0,-33,-21,0,40406
1749337122.005865332,274595,-391993,0,-31,-21,0,40407
1749337122.064002910,274532,-392035,0,-31,-21,0,40997
1749337122.114926212,274501,-392056,0,-33,-22,0,40397
1749337122.170982430,274468,-392078,0,-30,-21,0,40418
1749337122.227900070,274407,-392120,0,-32,-21,0,41625
1749337122.281032045,274375,-392141,0,-31,-22,0,40383
1749337122.335906788,274314,-392184,0,-31,-21,0,40433
1749337122.394055032,274283,-392205,0,-30,-22,0,41149
1749337122.447888448,274253,-392227,0,-30,-21,0,40417
1749337122.502016195,274192,-392269,0,-29,-22,0,40419
1749337122.555890258,274163,-392291,0,-29,-22,0,40417
1749337122.612025347,274134,-392313,0,-31,-20,0,40940
1749337122.665918373,274074,-392355,0,-29,-22,0,40410
1749337122.720025009,274045,-392377,0,-28,-22,0,40398
1749337122.775886803,274017,-392399,0,-30,-21,0,40600
1749337122.833003312,273958,-392441,0,-28,-22,0,40426
1749337122.887917722,273930,-392463,0,-29,-22,0,40397
1749337122.947021220,273873,-392507,0,-29,-21,0,40924
1749337122.997906318,273844,-392528,0,-28,-21,0,40389
1749337123.051052570,273816,-392549,0,-28,-22,0,40426
1749337123.097907820,273760,-392594,0,-28,-20,0,40419
1749337123.153071358,273732,-392614,0,-28,-22,0,40389
1749337123.206935421,273704,-392636,0,-27,-22,0,40412
1749337123.257025005,273677,-392658,0,-27,-21,0,40416
1749337123.310002906,273622,-392701,0,-28,-22,0,40641
1749337123.366070273,273594,-392723,0,-26,-21,0,40401
1749337123.414117497,273568,-392744,0,-27,-22,0,40397
1749337123.473048478,273513,-392788,0,-27,-22,0,40416
1749337123.524009038,273486,-392810,0,-26,-21,0,40405
1749337123.575093339,273460,-392831,0,-27,-22,0,40422
1749337123.627975222,273406,-392875,0,-26,-21,0,40437
1749337123.679114745,273380,-392896,0,-27,-22,0,40393
1749337123.733001364,273353,-392918,0,-27,-22,0,40427
1749337123.784111664,273326,-392940,0,-26,-22,0,40414
1749337123.838966815,273273,-392984,0,-26,-21,0,40427
1749337123.892089938,273247,-393005,0,-27,-23,0,41460
1749337123.945978501,273220,-393028,0,-26,-22,0,40407
1749337124.002237793,273167,-393071,0,-26,-22,0,40406
1749337124.055999616,273141,-393093,0,-26,-23,0,41875
1749337124.107122898,273115,-393116,0,-26,-22,0,40403
1749337124.163967001,273063,-393160,0,-27,-22,0,41415
1749337124.214080010,273036,-393182,0,-25,-22,0,40394
1749337124.267970296,273011,-393204,0,-25,-22,0,40412
1749337124.318078842,272960,-393247,0,-27,-23,0,40441
1749337124.371031762,272933,-393270,0,-24,-22,0,40992
1749337124.427469460,272909,-393292,0,-26,-22,0,40410
1749337124.484115546,272879,-393318,0,0,0,0,40907
1749337124.544068021,272879,-393318,0,0,0,0,40411
1749337124.600056036,272879,-393318,0,0,0,0,40409
1749337124.660104326,272960,-393390,0,151,-138,0,40436
1749337124.710119558,273111,-393528,0,134,-128,0,40656
1749337124.769126427,273245,-393656,0,106,-101,0,40423
1749337124.822023477,273460,-393858,0,126,-115,0,40427
1749337124.875294896,273586,-393973,0,129,-121,0,40846
1749337124.924978815,273838,-394209,0,121,-113,0,40431
1749337124.982140009,273959,-394322,0,124,-116,0,40398
1749337125.038085876,274083,-394438,0,125,-116,0,40416
1749337125.092196067,274333,-394672,0,125,-115,0,40409
1749337125.145012229,274458,-394787,0,125,-118,0,40430
1749337125.202143960,274583,-394905,0,123,-116,0,40429
1749337125.255158528,274833,-395139,0,124,-117,0,40425
1749337125.305115816,274957,-395256,0,125,-117,0,40399
1749337125.360069540,275082,-395373,0,123,-117,0,40436
1749337125.408953390,275330,-395607,0,125,-119,0,40925
1749337125.461324535,275455,-395726,0,125,-116,0,40409
1749337125.514103845,275580,-395842,0,123,-117,0,40416
1749337125.571157891,275703,-395959,0,123,-118,0,40420
1749337125.621038032,275951,-396194,0,123,-117,0,40421
1749337125.675242075,276074,-396311,0,123,-117,0,40416
1749337125.726149080,276197,-396428,0,123,-117,0,40403
1749337125.778217486,276447,-396665,0,122,-117,0,40420
1749337125.833099915,276569,-396782,0,123,-117,0,40405
1749337125.883331979,276692,-396899,0,122,-117,0,40434
1749337125.933072472,276814,-397016,0,123,-118,0,41002
1749337125.988212695,277060,-397251,0,122,-117,0,40430
1749337126.043098123,277182,-397368,0,121,-117,0,40406
1749337126.092196416,277303,-397485,0,125,-120,0,41473
1749337126.147075437,277549,-397721,0,121,-116,0,40443
1749337126.201028370,277670,-397837,0,122,-117,0,40407
1749337126.257153625,277792,-397954,0,122,-119,0,40956
1749337126.308211611,278035,-398190,0,120,-115,0,40429
1749337126.365210472,278155,-398305,0,121,-118,0,40422
1749337126.421082969,278276,-398423,0,124,-120,0,41617
1749337126.473234079,278521,-398659,0,120,-116,0,40430
1749337126.526108333,278641,-398775,0,120,-118,0,40404
1749337126.581208352,278761,-398893,0,122,-117,0,40906
1749337126.634115847,279004,-399127,0,119,-116,0,40446
1749337126.690232454,279123,-399243,0,120,-117,0,40409
1749337126.748113570,279243,-399360,0,121,-117,0,40416
1749337126.801261248,279484,-399595,0,120,-116,0,40420
1749337126.857115264,279604,-399711,0,120,-116,0,40421
1749337126.912235098,279724,-399827,0,123,-121,0,41621
1749337126.960150045,279966,-400065,0,119,-116,0,40426
1749337127.012253396,280085,-400181,0,120,-116,0,40409
1749337127.065204575,280205,-400297,0,119,-117,0,40437
1749337127.117372018,280444,-400531,0,118,-117,0,40416
1749337127.172160354,280562,-400648,0,119,-115,0,40415
1749337127.231262426,280681,-400763,0,119,-117,0,40423
1749337127.285274544,280921,-400999,0,117,-116,0,40406
1749337127.336294790,281038,-401115,0,119,-116,0,40403
1749337127.392125028,281157,-401231,0,118,-117,0,40417
1749337127.448230783,281398,-401467,0,118,-117,0,40432
1749337127.503116859,281516,-401584,0,117,-116,0,40388
1749337127.562211746,281633,-401700,0,118,-117,0,40409
1749337127.611205391,281872,-401934,0,117,-116,0,40427
1749337127.660199573,281989,-402050,0,118,-116,0,40418
1749337127.713168401,282107,-402166,0,118,-116,0,40415
1749337127.771145312,282225,-402282,0,122,-121,0,41700
1749337127.824288139,282465,-402518,0,118,-116,0,40405
1749337127.877155133,282583,-402634,0,117,-116,0,40426
1749337127.926401184,282820,-402868,0,117,-116,0,40411
1749337127.979202772,282937,-402984,0,118,-116,0,40417
1749337128.033167557,283055,-403100,0,118,-116,0,40418
1749337128.091307783,283173,-403216,0,117,-115,0,40417
1749337128.145271790,283410,-403450,0,117,-116,0,40420
1749337128.202325873,283527,-403566,0,118,-115,0,40414
1749337128.250347264,283766,-403801,0,117,-116,0,40436
1749337128.304313141,283883,-403917,0,117,-116,0,40389
1749337128.356278400,284000,-404033,0,118,-116,0,40439
1749337128.405275952,284118,-404149,0,118,-116,0,40418
1749337128.461192783,284352,-404381,0,117,-116,0,40418
1749337128.513154189,284469,-404497,0,117,-117,0,40406
1749337128.568258320,284586,-404614,0,118,-115,0,40433
1749337128.621193851,284822,-404847,0,116,-116,0,40427
1749337128.675312210,284938,-404963,0,117,-115,0,40418
1749337128.727279227,285055,-405078,0,117,-117,0,40420
1749337128.783318927,285172,-405195,0,120,-118,0,41661
1749337128.832232647,285409,-405429,0,116,-116,0,40419
1749337128.891326682,285525,-405545,0,117,-115,0,40425
1749337128.945201079,285760,-405777,0,117,-116,0,40436
1749337129.004349910,285877,-405893,0,116,-117,0,40404
1749337129.061299308,285993,-406010,0,117,-114,0,40421
1749337129.116389902,286229,-406243,0,118,-116,0,40402
1749337129.170230243,286347,-406359,0,116,-116,0,40417
1749337129.226368387,286463,-406475,0,116,-116,0,40415
1749337129.280258746,286698,-406708,0,117,-116,0,40437
1749337129.338378824,286815,-406824,0,116,-115,0,40404
1749337129.391502354,287048,-407056,0,120,-119,0,41761
1749337129.441336958,287168,-407175,0,116,-115,0,40397
1749337129.495303817,287284,-407290,0,117,-115,0,40429
1749337129.547265557,287401,-407405,0,116,-117,0,40419
1749337129.597352029,287635,-407639,0,116,-115,0,40427
1749337129.653323174,287751,-407754,0,25,-25,0,40389
1749337129.709376188,287776,-407779,0,-25,17,0,40411
1749337129.761365632,287745,-407759,0,0,0,0,40551
1749337129.817373610,287745,-407759,0,0,0,0,40383
1749337129.866310477,287745,-407759,0,0,0,0,40394
1749337129.920415558,287726,-407765,0,-36,-18,0,40952
1749337129.977316679,287690,-407783,0,-35,-23,0,40410
1749337130.027510484,287655,-407806,0,-30,-19,0,40415
1749337130.079346836,287596,-407841,0,-35,-20,0,41581
1749337130.132450273,287561,-407861,0,-35,-20,0,40398
1749337130.189309839,287526,-407881,0,-32,-20,0,40424
1749337130.249409387,287461,-407921,0,-34,-19,0,40953
1749337130.303332413,287427,-407940,0,-34,-21,0,40407
1749337130.356442018,287393,-407961,0,-33,-20,0,40397
1749337130.411331520,287326,-408001,0,-32,-21,0,40413
1749337130.471380457,287294,-408022,0,-33,-20,0,40743
1749337130.525323205,287261,-408042,0,-34,-21,0,40411
1749337130.579369582,287195,-408083,0,-32,-21,0,40432
1749337130.632345484,287163,-408104,0,-33,-21,0,40930
1749337130.688405072,287130,-408125,0,-32,-21,0,40415
1749337130.747366016,287066,-408167,0,-32,-20,0,40419
1749337130.801440615,287034,-408187,0,-31,-21,0,40420
1749337130.853378503,286971,-408229,0,-32,-22,0,40425
1749337130.914448380,286939,-408251,0,-30,-20,0,40405
1749337130.964395760,286909,-408271,0,-32,-21,0,41535
1749337131.015479320,286846,-408314,0,-30,-21,0,40409
1749337131.068433110,286816,-408335,0,-30,-21,0,40395
1749337131.129441542,286786,-408356,0,-32,-22,0,41651
1749337131.186314812,286724,-408399,0,-29,-21,0,40421
1749337131.239435860,286695,-408420,0,-30,-22,0,40393
1749337131.289381722,286665,-408442,0,-30,-21,0,40924
1749337131.341456240,286606,-408484,0,-30,-21,0,40406
1749337131.395367710,286576,-408505,0,-29,-21,0,40412
1749337131.448480407,286547,-408526,0,-29,-23,0,40417
1749337131.504411644,286490,-408569,0,-30,-22,0,40403
1749337131.556500643,286460,-408591,0,-28,-21,0,40396
1749337131.604301905,286432,-408612,0,-28,-22,0,40429
1749337131.655459964,286404,-408634,0,-30,-21,0,41224
1749337131.712400030,286346,-408677,0,-27,-22,0,40413
1749337131.771443935,286319,-408699,0,-29,-21,0,40400
1749337131.825339258,286262,-408742,0,-28,-22,0,40403
1749337131.879439153,286234,-408764,0,-27,-21,0,40409
1749337131.937388953,286207,-408785,0,-28,-22,0,40411
1749337131.994446000,286152,-408829,0,-28,-21,0,40430
1749337132.046486721,286124,-408850,0,-27,-22,0,40390
1749337132.102499939,286097,-408872,0,-26,-22,0,40432
1749337132.150412293,286043,-408916,0,-26,-21,0,40415
1749337132.203503898,286017,-408937,0,-28,-22,0,40508
1749337132.254449810,285989,-408959,0,-26,-22,0,40415
1749337132.305523240,285963,-408981,0,-27,-22,0,40431
1749337132.360487964,285910,-409025,0,-27,-22,0,41369
1749337132.416523034,285883,-409047,0,-27,-22,0,40409
1749337132.468493348,285856,-409069,0,-26,-22,0,40404
1749337132.523586127,285803,-409113,0,-26,-22,0,41468
1749337132.577458134,285777,-409135,0,-26,-22,0,40399
1749337132.630531442,285751,-409157,0,-26,-22,0,40414
1749337132.683397807,285699,-409201,0,-26,-22,0,40948
1749337132.734546718,285673,-409223,0,-26,-22,0,40402
1749337132.787515675,285647,-409245,0,-26,-23,0,40398
1749337132.839512082,285596,-409288,0,-25,-23,0,40407
1749337132.892400743,285571,-409311,0,-26,-22,0,40487
1749337132.948531979,285545,-409333,0,-26,-22,0,40415
1749337132.998389304,285494,-409377,0,-25,-22,0,40420
1749337133.055557127,285469,-409399,0,-6,-3,0,40944
1749337133.110684832,285463,-409402,0,0,0,0,40416
1749337133.169546517,285463,-409402,0,0,0,0,40411
1749337133.221500627,285463,-409402,0,0,0,0,41606
1749337133.278518395,285463,-409402,0,0,0,0,40401
1749337133.331520537,285547,-409471,0,154,-137,0,41301
1749337133.382535319,285701,-409608,0,134,-128,0,40394
1749337133.435433462,285835,-409736,0,106,-101,0,40425
1749337133.485568823,286051,-409937,0,126,-114,0,40437
1749337133.539428256,286177,-410051,0,130,-121,0,40978
1749337133.588488345,286307,-410172,0,123,-116,0,40431
1749337133.639559423,286430,-410288,0,122,-112,0,40409
1749337133.695479623,286679,-410517,0,126,-117,0,40433
1749337133.747460567,286805,-410634,0,125,-117,0,40407
1749337133.799596417,286930,-410751,0,123,-116,0,40432
1749337133.854582160,287179,-410984,0,125,-116,0,40529
1749337133.904463392,287304,-411100,0,124,-117,0,40426
1749337133.957595570,287428,-411217,0,124,-118,0,40425
1749337134.009504866,287552,-411335,0,125,-116,0,40416
1749337134.062560841,287803,-411570,0,124,-116,0,40414
1749337134.115538390,287927,-411686,0,124,-118,0,40414
1749337134.171578183,288051,-411804,0,123,-117,0,40427
1749337134.227481364,288301,-412040,0,124,-118,0,40416
1749337134.279593955,288425,-412158,0,123,-117,0,40412
1749337134.328525341,288548,-412275,0,122,-117,0,40412
1749337134.379714604,288795,-412510,0,122,-117,0,40439
1749337134.440553130,288917,-412627,0,123,-117,0,40402
1749337134.497561713,289040,-412744,0,123,-118,0,40418
1749337134.549506286,289285,-412978,0,122,-118,0,40659
1749337134.601627137,289407,-413096,0,122,-117,0,40425
1749337134.653561247,289529,-413213,0,123,-116,0,40404
1749337134.711627306,289773,-413447,0,123,-118,0,40857
1749337134.761592483,289896,-413565,0,122,-117,0,40411
1749337134.815674323,290018,-413682,0,121,-116,0,40426
1749337134.872514407,290260,-413915,0,122,-117,0,40429
1749337134.925624011,290382,-414032,0,123,-119,0,40984
1749337134.978487524,290505,-414151,0,121,-116,0,40423
1749337135.032640715,290746,-414384,0,124,-120,0,41524
1749337135.085527357,290870,-414504,0,122,-117,0,40401
1749337135.143760712,290992,-414621,0,120,-117,0,40430
1749337135.197493776,291232,-414855,0,123,-119,0,41623
1749337135.246593735,291355,-414974,0,121,-117,0,40401
1749337135.305501048,291476,-415091,0,120,-117,0,40419
1749337135.355522021,291716,-415325,0,121,-118,0,40912
1749337135.410546467,291837,-415443,0,120,-117,0,40412
1749337135.469627372,291957,-415560,0,120,-116,0,40420
1749337135.522551718,292196,-415793,0,123,-121,0,41678
1749337135.573674185,292319,-415914,0,119,-116,0,40405
1749337135.631537264,292438,-416030,0,120,-117,0,40423
1749337135.682645249,292676,-416263,0,121,-118,0,40904
1749337135.740587975,292797,-416381,0,119,-118,0,40406
1749337135.795625588,292916,-416499,0,119,-116,0,40416
1749337135.849551539,293153,-416731,0,123,-121,0,41681
1749337135.902645421,293276,-416852,0,119,-116,0,40408
1749337135.953601852,293395,-416968,0,118,-117,0,40410
1749337136.003696157,293631,-417201,0,120,-118,0,40814
1749337136.057628238,293751,-417319,0,119,-116,0,40400
1749337136.106568476,293870,-417435,0,118,-117,0,40440
1749337136.157614017,293988,-417552,0,119,-116,0,40417
1749337136.214526934,294225,-417784,0,119,-119,0,40957
1749337136.272656086,294344,-417903,0,119,-116,0,40418
1749337136.330634552,294463,-418019,0,118,-116,0,40421
1749337136.385685850,294703,-418255,0,118,-117,0,40424
1749337136.439574542,294821,-418372,0,117,-116,0,40424
1749337136.491707893,295057,-418605,0,118,-116,0,40431
1749337136.544604072,295175,-418721,0,117,-116,0,40552
1749337136.595804945,295292,-418837,0,118,-117,0,40419
1749337136.650584096,295410,-418954,0,118,-116,0,40421
1749337136.702684558,295645,-419186,0,120,-118,0,40853
1749337136.755626014,295765,-419304,0,116,-115,0,40409
1749337136.813647537,295881,-419419,0,118,-116,0,40409
1749337136.868593687,296116,-419652,0,121,-120,0,41567
1749337136.920812870,296237,-419772,0,117,-116,0,40416
1749337136.975583057,296354,-419888,0,117,-115,0,40406
1749337137.028762550,296587,-420119,0,120,-118,0,40969
1749337137.084595751,296707,-420237,0,117,-117,0,40408
1749337137.137747355,296824,-420354,0,116,-115,0,40421
1749337137.194572568,297058,-420585,0,120,-120,0,41609
1749337137.250744823,297178,-420705,0,117,-116,0,40411
1749337137.307595703,297412,-420936,0,116,-117,0,40427
1749337137.365732910,297528,-421053,0,119,-117,0,40950
1749337137.418603497,297647,-421170,0,117,-116,0,40410
1749337137.465693207,297881,-421401,0,117,-117,0,40436
1749337137.516683897,297998,-421518,0,117,-116,0,40402
1749337137.568607285,298115,-421634,0,118,-117,0,40921
1749337137.618654350,298233,-421751,0,117,-116,0,40399
1749337137.675603730,298466,-421983,0,121,-119,0,41501
1749337137.736786105,298587,-422102,0,116,-116,0,40412
1749337137.788641790,298703,-422218,0,117,-116,0,40410
1749337137.844733638,298936,-422449,0,117,-117,0,40437
1749337137.897739187,299053,-422566,0,117,-117,0,40686
1749337137.956753278,299170,-422683,0,116,-115,0,40418
1749337138.011631428,299403,-422914,0,117,-116,0,40412
1749337138.065742026,299520,-423030,0,116,-117,0,40851
1749337138.118694705,299752,-423263,0,117,-116,0,40431
1749337138.169856283,299869,-423379,0,116,-115,0,40406
1749337138.222637944,299985,-423494,0,119,-120,0,41630
1749337138.273773411,300104,-423614,0,117,-116,0,40405
1749337138.325725410,300244,-423755,0,-24,19,0,40407
1749337138.379786472,300220,-423736,0,-5,4,0,40975
1749337138.431737730,300215,-423732,0,0,0,0,40403
1749337138.488758221,300215,-423732,0,-14,-10,0,40407
1749337138.545791396,300201,-423742,0,-36,-22,0,41632
1749337138.601744985,300165,-423764,0,-35,-22,0,40403
1749337138.651626514,300101,-423804,0,-29,-18,0,40411
1749337138.703805993,300072,-423822,0,-34,-21,0,40972
1749337138.759695731,300038,-423843,0,-34,-19,0,40406
1749337138.813761626,299972,-423882,0,-33,-21,0,40433
1749337138.871647853,299939,-423903,0,-34,-19,0,40383
1749337138.923789832,299905,-423922,0,-34,-21,0,40938
1749337138.973628306,299839,-423964,0,-34,-20,0,40411
1749337139.026777817,299805,-423984,0,-34,-21,0,41586
1749337139.079785273,299771,-424005,0,-33,-20,0,40409
1749337139.130767778,299706,-424047,0,-33,-20,0,40425
1749337139.182666351,299673,-424067,0,-33,-21,0,40391
1749337139.240773391,299640,-424088,0,-32,-20,0,40623
1749337139.295683430,299575,-424129,0,-32,-21,0,40414
1749337139.353810118,299543,-424150,0,-31,-21,0,40409
1749337139.407816051,299512,-424171,0,-32,-21,0,40922
1749337139.459863457,299447,-424213,0,-30,-22,0,40402
1749337139.517785332,299417,-424235,0,-31,-19,0,40395
1749337139.575840705,299386,-424254,0,-32,-22,0,40416
1749337139.631744535,299323,-424298,0,-30,-20,0,40427
1749337139.681809082,299293,-424318,0,-30,-22,0,40390
1749337139.735750237,299263,-424340,0,-31,-21,0,40407
1749337139.787855068,299201,-424383,0,-29,-20,0,40418
1749337139.846739234,299172,-424403,0,-30,-22,0,40406
1749337139.903856539,299112,-424446,0,-30,-23,0,41597
1749337139.954810802,299082,-424469,0,-30,-21,0,40411
1749337140.007014930,299052,-424490,0,-28,-21,0,40398
1749337140.060800364,299024,-424511,0,-30,-21,0,40445
1749337140.116853359,298964,-424555,0,-28,-22,0,40411
1749337140.168785488,298936,-424577,0,-29,-20,0,40418
1749337140.213850617,298907,-424597,0,-29,-22,0,40408
1749337140.266797944,298849,-424642,0,-29,-21,0,40414
1749337140.320774358,298820,-424663,0,-27,-21,0,40395
1749337140.378946657,298793,-424684,0,-29,-23,0,40422
1749337140.432922553,298736,-424728,0,-28,-21,0,40426
1749337140.483892668,298708,-424749,0,-27,-23,0,40383
1749337140.540764733,298681,-424772,0,-28,-21,0,40421
1749337140.596862099,298624,-424815,0,-27,-22,0,40406
1749337140.648773543,298597,-424837,0,-27,-23,0,40398
1749337140.703982821,298570,-424860,0,-28,-20,0,40417
1749337140.759787411,298515,-424903,0,-27,-21,0,40408
1749337140.808813203,298488,-424924,0,-27,-23,0,40388
1749337140.861797808,298461,-424947,0,-27,-21,0,40436
1749337140.919794163,298407,-424990,0,-26,-22,0,40715
1749337140.972915471,298381,-425012,0,-27,-22,0,40380
1749337141.025826687,298354,-425034,0,-27,-22,0,40408
1749337141.077905019,298301,-425078,0,-27,-22,0,40410
1749337141.133866774,298274,-425100,0,-26,-22,0,40387
1749337141.187956021,298248,-425122,0,-26,-22,0,40427
1749337141.244816790,298195,-425166,0,-26,-23,0,40429
1749337141.295957238,298169,-425189,0,-27,-21,0,40390
1749337141.350884258,298142,-425210,0,-25,-22,0,40434
1749337141.400911212,298092,-425255,0,-27,-22,0,40411
1749337141.456791523,298065,-425277,0,-26,-22,0,40410
1749337141.510926548,298039,-425299,0,-25,-21,0,40422
1749337141.564895647,298014,-425320,0,-25,-23,0,40417
1749337141.613905903,297963,-425365,0,-26,-23,0,40408
1749337141.665922494,297937,-425388,0,-26,-21,0,40412
1749337141.713736700,297911,-425409,0,-25,-24,0,41547
1749337141.771916037,297886,-425433,0,-6,-3,0,40420
1749337141.827828607,297880,-425436,0,0,0,0,40392
1749337141.882974256,297880,-425436,0,0,0,0,40407
1749337141.934119629,297880,-425436,0,82,-72,0,40428
1749337141.988984594,297962,-425508,0,153,-138,0,40398
1749337142.044861887,298115,-425646,0,134,-128,0,40426
1749337142.099898184,298355,-425876,0,110,-101,0,40416
1749337142.152867993,298465,-425977,0,127,-115,0,40415
1749337142.209940798,298592,-426092,0,128,-120,0,40404
1749337142.262904736,298843,-426328,0,122,-114,0,40711
1749337142.315966321,298965,-426442,0,124,-115,0,40400
1749337142.369911458,299089,-426557,0,126,-118,0,40410
1749337142.422011512,299340,-426792,0,125,-117,0,40825
1749337142.473944585,299465,-426909,0,125,-117,0,40404
1749337142.530961538,299590,-427026,0,124,-118,0,40421
1749337142.582889797,299839,-427261,0,125,-117,0,40425
1749337142.635997419,299964,-427378,0,124,-118,0,40720
1749337142.690876884,300088,-427496,0,124,-117,0,40429
1749337142.742055906,300337,-427731,0,124,-117,0,40437
1749337142.791900749,300461,-427848,0,124,-118,0,40889
1749337142.842974549,300585,-427966,0,125,-118,0,40424
1749337142.898945268,300710,-428084,0,123,-117,0,40411
1749337142.959963644,300956,-428318,0,127,-121,0,41835
1749337143.011913050,301083,-428439,0,124,-117,0,40404
1749337143.064960562,301207,-428556,0,123,-117,0,40431
1749337143.115959307,301456,-428794,0,123,-117,0,40408
1749337143.172955909,301579,-428911,0,123,-117,0,40422
1749337143.230064695,301702,-429028,0,122,-117,0,40413
1749337143.285999395,301950,-429266,0,123,-117,0,40422
1749337143.344886227,302073,-429383,0,121,-116,0,40399
1749337143.397030206,302316,-429616,0,123,-119,0,40814
1749337143.450896751,302439,-429735,0,121,-117,0,40406
1749337143.502018606,302560,-429852,0,122,-116,0,40429
1749337143.555894243,302804,-430085,0,124,-120,0,41598
1749337143.606067788,302928,-430205,0,121,-117,0,40406
1749337143.663930830,303049,-430322,0,121,-117,0,40439
1749337143.716987545,303291,-430555,0,121,-119,0,40893
1749337143.769934594,303412,-430674,0,121,-116,0,40404
1749337143.825025891,303533,-430790,0,120,-118,0,40416
1749337143.881897882,303774,-431024,0,119,-117,0,40421
1749337143.935025616,303893,-431141,0,121,-117,0,40673
1749337143.987939017,304014,-431258,0,120,-116,0,40430
1749337144.045085525,304254,-431491,0,119,-117,0,40435
1749337144.097963260,304373,-431608,0,122,-118,0,40909
1749337144.151998340,304495,-431726,0,120,-117,0,40415
1749337144.206914601,304733,-431959,0,120,-117,0,40430
1749337144.260022242,304853,-432076,0,125,-120,0,41891
1749337144.313935175,304978,-432196,0,118,-117,0,40418
1749337144.373129506,305216,-432430,0,119,-116,0,40442
1749337144.428205080,305335,-432546,0,120,-116,0,40545
1749337144.479078381,305455,-432662,0,118,-118,0,40427
1749337144.532985833,305693,-432896,0,119,-116,0,40423
1749337144.591053132,305812,-433012,0,121,-120,0,41615
1749337144.640958790,305933,-433132,0,120,-116,0,40413
1749337144.699069553,306171,-433364,0,119,-117,0,40417
1749337144.751217143,306290,-433481,0,120,-117,0,40922
1749337144.806075627,306410,-433598,0,118,-116,0,40411
1749337144.861949512,306647,-433830,0,118,-117,0,40433
1749337144.921079769,306765,-433947,0,121,-119,0,41629
1749337144.975001109,306886,-434066,0,119,-116,0,40410
1749337145.031197585,307123,-434298,0,118,-117,0,40410
1749337145.086983619,307241,-434415,0,118,-117,0,40817
1749337145.145065085,307478,-434648,0,118,-116,0,40433
1749337145.197072380,307596,-434764,0,116,-117,0,40401
1749337145.254224722,307712,-434881,0,118,-116,0,40409
1749337145.313975105,307949,-435112,0,118,-117,0,40410
1749337145.368063703,308067,-435229,0,116,-117,0,40414
1749337145.422000154,308301,-435462,0,119,-116,0,40868
1749337145.477112803,308420,-435578,0,117,-116,0,40413
1749337145.530996625,308537,-435694,0,118,-117,0,40433
1749337145.584142673,308772,-435927,0,117,-115,0,40421
1749337145.635106437,308889,-436042,0,120,-118,0,41032
1749337145.688109930,309009,-436160,0,117,-116,0,40421
1749337145.743049450,309126,-436276,0,118,-117,0,40414
1749337145.795156689,309364,-436512,0,117,-115,0,40420
1749337145.845035328,309481,-436627,0,118,-117,0,40399
1749337145.901116342,309599,-436744,0,117,-116,0,40430
1749337145.949011011,309835,-436978,0,118,-117,0,40432
1749337146.004160160,309953,-437095,0,117,-116,0,40411
1749337146.058052315,310070,-437211,0,117,-115,0,40433
1749337146.112131765,310305,-437444,0,117,-116,0,40417
1749337146.168007799,310422,-437560,0,117,-117,0,40410
1749337146.220124926,310539,-437677,0,117,-115,0,40430
1749337146.275002428,310776,-437911,0,116,-116,0,40425
1749337146.333162690,310892,-438027,0,116,-117,0,40394
1749337146.387058771,311008,-438144,0,118,-115,0,40435
1749337146.444140891,311243,-438375,0,116,-117,0,40406
1749337146.493991438,311359,-438492,0,117,-116,0,40415
1749337146.547150078,311476,-438608,0,116,-115,0,40398
1749337146.600042739,311711,-438843,0,117,-115,0,40427
1749337146.654152430,311828,-438958,0,117,-116,0,40406
1749337146.705066935,311945,-439074,0,116,-116,0,40445
1749337146.758158390,312061,-439190,0,118,-118,0,41183
1749337146.811028477,312295,-439424,0,117,-116,0,40426
1749337146.871162673,312412,-439540,0,116,-115,0,40408
1749337146.924118963,312648,-439774,0,117,-117,0,40414
1749337146.982132910,312765,-439891,0,23,-24,0,40396
1749337147.036128269,312788,-439915,0,-25,20,0,41676
1749337147.092151320,312760,-439890,0,0,0,0,40416
1749337147.148043964,312760,-439890,0,-13,-9,0,40393
1749337147.204159885,312747,-439899,0,-32,-24,0,40422
1749337147.262071722,312680,-439947,0,-30,-18,0,40437
1749337147.317332055,312650,-439965,0,-29,-18,0,40397
1749337147.366158571,312588,-440002,0,-34,-21,0,40621
1749337147.417327778,312554,-440023,0,-33,-20,0,40398
1749337147.472133799,312521,-440043,0,-33,-19,0,40423
1749337147.526252860,312488,-440062,0,-33,-20,0,40403
1749337147.580133460,312421,-440102,0,-34,-22,0,40757
1749337147.638216944,312387,-440124,0,-33,-19,0,40400
1749337147.688055880,312354,-440143,0,-33,-20,0,40420
1749337147.739249087,312287,-440184,0,-33,-20,0,40945
1749337147.792109248,312254,-440204,0,-32,-21,0,40409
1749337147.839208402,312222,-440225,0,-33,-21,0,40417
1749337147.889185319,312189,-440246,0,-33,-21,0,40429
1749337147.942228608,312124,-440286,0,-32,-21,0,40593
1749337147.995096047,312092,-440307,0,-32,-22,0,40404
1749337148.048266391,312060,-440329,0,-31,-20,0,40415
1749337148.096096838,311997,-440370,0,-32,-21,0,41028
1749337148.150260195,311965,-440391,0,-30,-21,0,40403
1749337148.208164144,311935,-440412,0,-32,-21,0,40428
1749337148.263274811,311903,-440433,0,-31,-21,0,40410
1749337148.314144297,311843,-440475,0,-32,-21,0,40887
1749337148.368246395,311811,-440496,0,-31,-21,0,40387
1749337148.421145352,311780,-440517,0,-29,-21,0,40417
1749337148.479254651,311721,-440559,0,-30,-22,0,41015
1749337148.533149084,311691,-440581,0,-30,-21,0,40396
1749337148.586253614,311631,-440623,0,-29,-21,0,40428
1749337148.641275670,311602,-440644,0,-29,-21,0,40395
1749337148.694283404,311573,-440665,0,-30,-22,0,40850
1749337148.748221485,311543,-440687,0,-29,-22,0,40418
1749337148.801248682,311485,-440729,0,-27,-22,0,40423
1749337148.855190837,311458,-440751,0,-30,-21,0,40823
1749337148.911281276,311428,-440772,0,-29,-22,0,40411
1749337148.966330092,311371,-440815,0,-28,-22,0,40429
1749337149.021310315,311343,-440837,0,-28,-22,0,41612
1749337149.075284951,311286,-440880,0,-28,-21,0,40430
1749337149.126327659,311258,-440901,0,-27,-22,0,40385
1749337149.176464427,311231,-440923,0,-28,-22,0,40880
1749337149.230263008,311203,-440945,0,-28,-21,0,40415
1749337149.288155160,311148,-440988,0,-27,-21,0,40429
1749337149.342265796,311121,-441009,0,-28,-22,0,40405
1749337149.401324423,311093,-441031,0,-27,-21,0,40549
1749337149.452492445,311039,-441075,0,-27,-21,0,40406
1749337149.508304349,311012,-441096,0,-27,-22,0,41426
1749337149.561326582,310957,-441140,0,-25,-21,0,40421
1749337149.620298858,310932,-441161,0,-27,-23,0,40403
1749337149.677261404,310905,-441184,0,-28,-21,0,41779
1749337149.736333217,310850,-441228,0,-26,-21,0,40411
1749337149.790231372,310824,-441249,0,-27,-21,0,40411
1749337149.848330504,310771,-441293,0,-26,-22,0,40405
1749337149.904229815,310745,-441315,0,-27,-21,0,40401
1749337149.959326205,310718,-441336,0,-25,-21,0,40410
1749337150.010307209,310666,-441380,0,-26,-22,0,40550
1749337150.067351217,310640,-441402,0,-26,-21,0,40393
1749337150.116239270,310614,-441423,0,-25,-22,0,40416
1749337150.174322958,310563,-441467,0,-27,-22,0,40933
1749337150.228150835,310536,-441489,0,-25,-22,0,40388
1749337150.286318208,310511,-441511,0,-26,-21,0,40397
1749337150.340279252,310460,-441555,0,-25,-22,0,40411
1749337150.398358236,310435,-441577,0,-4,-3,0,40640
1749337150.456322388,310431,-441580,0,0,0,0,40408
1749337150.510355450,310431,-441580,0,0,0,0,40397
1749337150.562287597,310431,-441580,0,0,1,0,41024
1749337150.613421415,310513,-441651,0,153,-138,0,40414
1749337150.666316686,310666,-441789,0,134,-127,0,40399
1749337150.723373917,310800,-441916,0,108,-103,0,41654
1749337150.776313929,311018,-442120,0,126,-116,0,40444
1749337150.833343919,311144,-442236,0,129,-119,0,40395
1749337150.887366462,311273,-442355,0,124,-118,0,41126
1749337150.941519634,311518,-442586,0,125,-115,0,40425
1749337150.995248531,311643,-442701,0,125,-117,0,40420
1749337151.049396648,311768,-442818,0,128,-121,0,41695
1749337151.100399614,312021,-443055,0,124,-117,0,40431
1749337151.155410430,312145,-443172,0,129,-120,0,41603
1749337151.207336336,312274,-443292,0,125,-117,0,40425
1749337151.261427750,312399,-443409,0,123,-117,0,40407
1749337151.314299280,312647,-443643,0,125,-118,0,40439
1749337151.366413130,312772,-443761,0,125,-117,0,40619
1749337151.412251662,312897,-443878,0,123,-117,0,40408
1749337151.468388990,313020,-443995,0,124,-118,0,40415
1749337151.528285594,313268,-444229,0,126,-120,0,40910
1749337151.582428322,313394,-444349,0,123,-116,0,40405
1749337151.636314477,313640,-444582,0,123,-118,0,40423
1749337151.692437787,313763,-444700,0,126,-119,0,41603
1749337151.745322225,313889,-444819,0,124,-117,0,40424
1749337151.798403607,314136,-445054,0,121,-117,0,40433
1749337151.853302682,314257,-445171,0,124,-118,0,41106
1749337151.906383045,314381,-445289,0,123,-117,0,40408
1749337151.961344583,314626,-445523,0,122,-117,0,40413
1749337152.017415801,314748,-445640,0,124,-120,0,41406
1749337152.074361254,314872,-445760,0,122,-116,0,40413
1749337152.127523802,315115,-445994,0,122,-116,0,40432
1749337152.179465116,315237,-446110,0,122,-119,0,40898
1749337152.237446230,315359,-446229,0,120,-116,0,40425
1749337152.293310393,315601,-446462,0,121,-117,0,40414
1749337152.345442391,315722,-446579,0,120,-117,0,40419
1749337152.402374122,315842,-446696,0,122,-118,0,40942
1749337152.459428519,316085,-446931,0,121,-117,0,40428
1749337152.512309587,316206,-447048,0,122,-120,0,41509
1749337152.563487460,316449,-447284,0,121,-117,0,40426
1749337152.618351795,316570,-447401,0,119,-117,0,40418
1749337152.675462600,316689,-447518,0,120,-116,0,40437
1749337152.728358427,316930,-447752,0,120,-117,0,40426
1749337152.784451496,317050,-447869,0,119,-115,0,40396
1749337152.837347453,317169,-447984,0,120,-118,0,40436
1749337152.887425091,317410,-448220,0,119,-116,0,40432
1749337152.942392185,317529,-448336,0,120,-116,0,40402
1749337152.996461468,317649,-448452,0,119,-117,0,40417
1749337153.049411388,317887,-448686,0,119,-116,0,40554
1749337153.105532771,318006,-448802,0,119,-117,0,40397
1749337153.164354048,318125,-448919,0,119,-117,0,40432
1749337153.222450273,318364,-449152,0,119,-118,0,41196
1749337153.274361976,318483,-449270,0,119,-118,0,40403
1749337153.327493227,318602,-449388,0,119,-115,0,40431
1749337153.375373896,318839,-449620,0,121,-120,0,41384
1749337153.433461954,318960,-449740,0,118,-116,0,40409
1749337153.487390498,319078,-449856,0,118,-116,0,40425
1749337153.540518750,319315,-450088,0,119,-118,0,40886
1749337153.593395855,319434,-450206,0,118,-117,0,40405
1749337153.651479209,319552,-450323,0,117,-116,0,40427
1749337153.703547226,319788,-450555,0,118,-116,0,40440
1749337153.762495576,319906,-450671,0,119,-118,0,40958
1749337153.819419270,320025,-450789,0,118,-116,0,40415
1749337153.873526424,320261,-451022,0,122,-119,0,41625
1749337153.922363217,320383,-451141,0,117,-117,0,40408
1749337153.975520024,320500,-451258,0,117,-115,0,40417
1749337154.028409759,320735,-451490,0,122,-119,0,41545
1749337154.081516362,320857,-451609,0,117,-116,0,40410
1749337154.135414795,320974,-451725,0,117,-116,0,40420
1749337154.187546219,321209,-451957,0,118,-117,0,40873
1749337154.243408141,321327,-452074,0,118,-117,0,40417
1749337154.294599588,321445,-452191,0,117,-115,0,40417
1749337154.351447079,321679,-452423,0,117,-116,0,40433
1749337154.408534717,321796,-452539,0,119,-117,0,40897
1749337154.462576019,321915,-452656,0,117,-116,0,40422
1749337154.514562943,322149,-452888,0,116,-116,0,40426
1749337154.567419011,322265,-453004,0,118,-117,0,40682
1749337154.624577630,322383,-453121,0,117,-116,0,40416
1749337154.677430402,322617,-453353,0,116,-116,0,40427
1749337154.731516778,322733,-453469,0,121,-119,0,41637
1749337154.782580707,322854,-453588,0,116,-117,0,40414
1749337154.834572428,323087,-453820,0,117,-117,0,40429
1749337154.888453787,323204,-453937,0,117,-117,0,40834
1749337154.947571284,323321,-454054,0,117,-114,0,40430
1749337155.003457798,323555,-454285,0,116,-117,0,40426
1749337155.061564060,323671,-454402,0,116,-115,0,40387
