ros_time,ticks_L,ticks_R,ticks_UNUSED,delta_ticks_L,delta_ticks_R,delta_ticks_UNUSED,delta_time_usec
1749337766.463837447,0,0,0,0,0,0,40279
1749337766.464543943,0,0,0,0,0,0,40294
1749337766.489106029,0,0,0,0,0,0,40662
1749337766.539168638,0,0,0,0,0,0,40280
1749337766.593221911,0,0,0,0,0,0,40293
1749337766.652258804,0,0,0,0,0,0,40276
1749337766.706289355,0,0,0,0,0,0,41108
1749337766.758313324,0,0,0,0,0,0,40292
1749337766.813265814,0,0,0,0,0,0,40284
1749337766.867287754,0,0,0,0,0,0,41306
1749337766.919290057,0,0,0,0,0,0,40294
1749337766.974274787,0,0,0,0,0,0,40286
1749337767.025162670,0,0,0,0,0,0,40290
1749337767.082253000,0,0,0,0,0,0,40291
1749337767.136246181,0,0,0,0,0,0,40282
1749337767.189318496,0,0,0,0,0,0,40280
1749337767.242262145,0,0,0,0,0,0,40293
1749337767.293335453,0,0,0,0,0,0,40279
1749337767.342336884,0,0,0,0,0,0,40290
1749337767.396367620,0,0,0,0,0,0,40283
1749337767.449350306,0,0,0,0,0,0,40291
1749337767.503354634,0,0,0,0,0,0,40282
1749337767.559364989,0,0,0,0,0,0,40293
1749337767.617280685,0,0,0,0,0,0,40294
1749337767.672240378,0,0,0,0,0,0,40298
1749337767.726369725,0,0,0,0,0,0,40297
1749337767.778335157,0,0,0,0,0,0,41459
1749337767.828438063,0,0,0,0,0,0,40289
1749337767.882249263,0,0,0,0,0,0,40294
1749337767.936371110,0,0,0,0,0,0,40731
1749337767.987371177,0,0,0,0,0,0,40278
1749337768.045320632,0,0,0,0,0,0,40274
1749337768.101234691,0,0,0,0,0,0,40298
1749337768.158369483,0,0,0,0,0,0,41201
1749337768.209351977,0,0,0,0,0,0,40312
1749337768.262389903,0,0,0,0,0,0,40279
1749337768.312296366,0,0,0,0,0,0,40295
1749337768.370363413,0,0,0,10,-9,0,40447
1749337768.428380071,43,-40,0,58,-52,0,40416
1749337768.477475279,101,-92,0,77,-70,0,40384
1749337768.533278097,178,-162,0,91,-83,0,40395
1749337768.583196745,373,-338,0,111,-100,0,40396
1749337768.637380924,484,-438,0,117,-106,0,40403
1749337768.692298951,601,-544,0,122,-110,0,40398
1749337768.744384254,854,-771,0,130,-116,0,40418
1749337768.797344977,984,-887,0,132,-119,0,40384
1749337768.850418570,1116,-1006,0,134,-119,0,40411
1749337768.904263437,1389,-1250,0,136,-122,0,40394
1749337768.955402059,1525,-1372,0,137,-123,0,40388
1749337769.006286220,1662,-1495,0,138,-123,0,40376
1749337769.061427709,1940,-1745,0,139,-125,0,40397
1749337769.118356002,2079,-1870,0,140,-126,0,40381
1749337769.179427736,2219,-1996,0,139,-127,0,40420
1749337769.237423579,2498,-2250,0,142,-130,0,41301
1749337769.289339308,2640,-2380,0,140,-127,0,40377
1749337769.346399713,2780,-2507,0,144,-132,0,41678
1749337769.398426330,3064,-2767,0,139,-129,0,40410
1749337769.456406062,3203,-2896,0,140,-129,0,40402
1749337769.514445887,3484,-3154,0,141,-130,0,40658
1749337769.568322827,3625,-3284,0,141,-130,0,40370
1749337769.621408383,3766,-3414,0,140,-129,0,40378
1749337769.673345372,4047,-3673,0,142,-131,0,40959
1749337769.728390065,4189,-3804,0,141,-129,0,40388
1749337769.781344677,4330,-3933,0,141,-129,0,40399
1749337769.838417081,4612,-4191,0,140,-130,0,40409
1749337769.891297916,4752,-4321,0,142,-130,0,40742
1749337769.946448164,4894,-4451,0,141,-130,0,40398
1749337769.999385795,5176,-4711,0,140,-130,0,40400
1749337770.050544880,5316,-4841,0,143,-132,0,40983
1749337770.100297177,5459,-4973,0,141,-131,0,40383
1749337770.152802736,5600,-5104,0,140,-130,0,40428
1749337770.204548799,5880,-5365,0,145,-134,0,41640
1749337770.258491424,6025,-5499,0,139,-131,0,40404
1749337770.310367969,6164,-5630,0,141,-130,0,40385
1749337770.364457926,6445,-5891,0,142,-133,0,40896
1749337770.415477012,6587,-6024,0,139,-130,0,40378
1749337770.474459961,6726,-6154,0,141,-131,0,40401
1749337770.527357981,7007,-6416,0,141,-131,0,40422
1749337770.577451757,7148,-6547,0,144,-135,0,41412
1749337770.631436438,7292,-6682,0,140,-131,0,40381
1749337770.684591716,7573,-6945,0,144,-134,0,41229
1749337770.739410151,7717,-7079,0,141,-132,0,40386
1749337770.785601171,7858,-7211,0,140,-132,0,40406
1749337770.841439453,7998,-7343,0,141,-131,0,40389
1749337770.891474081,8281,-7606,0,142,-133,0,40728
1749337770.944562692,8423,-7739,0,141,-132,0,40411
1749337770.997347380,8564,-7871,0,141,-132,0,40392
1749337771.050418010,8846,-8135,0,142,-134,0,40886
1749337771.105484481,8988,-8269,0,140,-132,0,40379
1749337771.160392045,9128,-8401,0,141,-132,0,40400
1749337771.212495569,9409,-8665,0,141,-133,0,40404
1749337771.262517346,9550,-8798,0,142,-134,0,40812
1749337771.316478730,9692,-8932,0,140,-132,0,40404
1749337771.368424904,9832,-9064,0,140,-133,0,40419
1749337771.424431684,10113,-9330,0,141,-134,0,40856
1749337771.483512725,10254,-9464,0,141,-133,0,40389
1749337771.538440271,10535,-9730,0,140,-133,0,40407
1749337771.591496456,10675,-9863,0,141,-133,0,40374
1749337771.648437269,10816,-9996,0,141,-134,0,40708
1749337771.701514769,11098,-10264,0,140,-133,0,40396
1749337771.752552170,11238,-10397,0,141,-134,0,40384
1749337771.803527182,11379,-10531,0,142,-135,0,41032
1749337771.855480281,11521,-10666,0,141,-134,0,40413
1749337771.912543722,11803,-10934,0,141,-134,0,40403
1749337771.967435916,11944,-11068,0,141,-133,0,40396
1749337772.020574749,12229,-11338,0,141,-134,0,40407
1749337772.074461393,12370,-11472,0,141,-133,0,40373
1749337772.126566103,12511,-11605,0,143,-137,0,41321
1749337772.179475290,12654,-11742,0,141,-134,0,40407
1749337772.232554401,12936,-12010,0,140,-134,0,40414
1749337772.281419332,13076,-12144,0,145,-138,0,41640
1749337772.338519662,13221,-12282,0,140,-134,0,40387
1749337772.394442906,13501,-12550,0,140,-134,0,40402
1749337772.451534162,13641,-12684,0,142,-135,0,40978
1749337772.505408658,13783,-12819,0,139,-135,0,40385
1749337772.560563609,14062,-13088,0,140,-135,0,40419
1749337772.617432329,14202,-13223,0,145,-138,0,41643
1749337772.674564678,14487,-13496,0,141,-134,0,40397
1749337772.728449766,14628,-13630,0,141,-134,0,40374
1749337772.782580094,14769,-13764,0,142,-137,0,41000
1749337772.837520417,15052,-14035,0,140,-135,0,40410
1749337772.895625927,15192,-14170,0,141,-134,0,40383
1749337772.952503387,15333,-14304,0,141,-135,0,40388
1749337773.000543601,15616,-14575,0,140,-134,0,40402
1749337773.058477834,15756,-14709,0,141,-135,0,40406
1749337773.113441120,15897,-14844,0,141,-135,0,40393
1749337773.166721119,16181,-15115,0,141,-134,0,40412
1749337773.220589763,16322,-15249,0,141,-135,0,40380
1749337773.273600616,16463,-15384,0,141,-135,0,40403
1749337773.328451847,16744,-15653,0,122,-116,0,41283
1749337773.384623645,16866,-15769,0,89,-84,0,40364
1749337773.438605714,16955,-15853,0,63,-58,0,40371
1749337773.490602184,17063,-15950,0,28,-24,0,40390
1749337773.547479070,17091,-15974,0,18,-14,0,40372
1749337773.600582422,17109,-15988,0,4,-13,0,40404
1749337773.653509479,17112,-16020,0,-2,-23,0,40701
1749337773.709566259,17110,-16043,0,-5,-27,0,40371
1749337773.766535793,17105,-16070,0,-16,-30,0,40379
1749337773.822601629,17068,-16132,0,-26,-34,0,41005
1749337773.878556113,17042,-16166,0,-30,-35,0,40380
1749337773.935612814,16981,-16237,0,-33,-36,0,40397
1749337773.990488971,16948,-16273,0,-35,-37,0,40385
1749337774.043625063,16913,-16310,0,-36,-38,0,40656
1749337774.092554031,16841,-16386,0,-37,-38,0,40386
1749337774.146658507,16804,-16424,0,-37,-38,0,40372
1749337774.199468306,16767,-16462,0,-38,-39,0,41035
1749337774.256582450,16691,-16540,0,-39,-38,0,40406
1749337774.308497031,16652,-16578,0,-38,-39,0,40366
1749337774.364627829,16614,-16617,0,-39,-39,0,40394
1749337774.421687826,16536,-16695,0,-39,-39,0,40392
1749337774.477667681,16497,-16734,0,-39,-39,0,40387
1749337774.528508175,16458,-16773,0,-39,-39,0,40375
1749337774.581631675,16379,-16852,0,-39,-39,0,40384
1749337774.634541287,16340,-16891,0,-39,-39,0,40375
1749337774.688681689,16301,-16930,0,-39,-39,0,40400
1749337774.743568180,16222,-17008,0,-40,-40,0,41286
1749337774.794668098,16182,-17048,0,-39,-39,0,40388
1749337774.850611861,16143,-17087,0,-39,-40,0,40387
1749337774.905670850,16064,-17167,0,-39,-39,0,40395
1749337774.955546979,16025,-17206,0,-39,-39,0,40386
1749337775.013647600,15986,-17245,0,-39,-39,0,40401
1749337775.068575479,15908,-17324,0,-39,-39,0,40716
1749337775.120631374,15869,-17363,0,-39,-39,0,40364
1749337775.177624815,15830,-17402,0,-40,-39,0,40390
1749337775.230658779,15751,-17480,0,-40,-40,0,41018
1749337775.284595108,15711,-17520,0,-39,-39,0,40390
1749337775.336660410,15672,-17559,0,-39,-39,0,40383
1749337775.398787989,15593,-17638,0,-39,-39,0,40384
1749337775.455933337,15554,-17677,0,-40,-40,0,40788
1749337775.511531139,15475,-17756,0,-39,-39,0,40402
1749337775.568756245,15436,-17795,0,-39,-40,0,40378
1749337775.623555144,15397,-17835,0,-41,-39,0,40927
1749337775.674690544,15317,-17914,0,-40,-39,0,40403
1749337775.728567428,15277,-17953,0,-39,-40,0,40379
1749337775.780693101,15238,-17993,0,-39,-39,0,40401
1749337775.834599393,15159,-18071,0,-40,-39,0,40384
1749337775.890707487,15119,-18110,0,-39,-40,0,40380
1749337775.942601550,15080,-18150,0,-40,-39,0,40388
1749337775.995720032,15000,-18228,0,-39,-39,0,40392
1749337776.042592752,14961,-18267,0,-40,-40,0,40369
1749337776.095680530,14921,-18307,0,-39,-39,0,40403
1749337776.151573422,14882,-18346,0,-40,-39,0,40385
1749337776.205710027,14801,-18426,0,-40,-39,0,40394
1749337776.259685912,14761,-18465,0,-39,-39,0,40378
1749337776.309653003,14722,-18504,0,-40,-40,0,41028
1749337776.366655556,14642,-18583,0,-39,-40,0,40396
1749337776.425651579,14603,-18623,0,-40,-39,0,40374
1749337776.481708451,14523,-18701,0,-39,-40,0,40748
1749337776.531552340,14484,-18741,0,-40,-39,0,40372
1749337776.585712983,14444,-18780,0,-39,-40,0,40392
1749337776.640605417,14405,-18820,0,-40,-39,0,40381
1749337776.689679422,14326,-18899,0,-39,-39,0,40402
1749337776.740741933,14287,-18938,0,-40,-40,0,40371
1749337776.796724565,14247,-18978,0,-32,-31,0,40388
1749337776.856768786,14194,-19029,0,-12,-12,0,40675
1749337776.910651078,14182,-19041,0,-6,-2,0,40373
1749337776.969727119,14176,-19043,0,-1,0,0,40373
1749337777.018579440,14183,-19058,0,29,-41,0,41001
1749337777.079728525,14212,-19099,0,52,-61,0,40371
1749337777.131675087,14337,-19237,0,89,-90,0,40400
1749337777.185764637,14426,-19327,0,101,-101,0,40385
1749337777.238663953,14527,-19428,0,111,-108,0,40719
1749337777.287741809,14755,-19650,0,123,-119,0,40412
1749337777.343686682,14878,-19769,0,127,-122,0,40383
1749337777.394740509,15005,-19891,0,132,-126,0,40955
1749337777.451810505,15137,-20017,0,132,-127,0,40384
1749337777.506679070,15403,-20272,0,136,-130,0,40403
1749337777.559794440,15539,-20402,0,137,-130,0,40391
1749337777.614673727,15676,-20532,0,140,-134,0,41336
1749337777.667805764,15955,-20799,0,139,-132,0,40403
1749337777.720677673,16094,-20931,0,142,-135,0,41290
1749337777.778753164,16236,-21066,0,139,-132,0,40388
1749337777.831645776,16515,-21330,0,139,-133,0,40404
1749337777.888767365,16654,-21463,0,139,-132,0,40401
1749337777.941723977,16933,-21729,0,140,-133,0,40393
1749337777.993836817,17073,-21862,0,139,-133,0,40397
1749337778.046709762,17212,-21995,0,140,-134,0,40392
1749337778.102799487,17352,-22129,0,142,-136,0,41231
1749337778.156703649,17634,-22398,0,140,-134,0,40399
1749337778.213818534,17774,-22532,0,140,-134,0,40402
1749337778.270740235,18058,-22804,0,140,-134,0,40413
1749337778.327800621,18198,-22938,0,140,-133,0,40376
1749337778.377704546,18338,-23071,0,141,-134,0,40380
1749337778.433819548,18619,-23340,0,141,-134,0,40409
1749337778.485730814,18760,-23474,0,141,-134,0,40398
1749337778.540840766,18901,-23608,0,140,-134,0,40395
1749337778.597693986,19182,-23877,0,141,-135,0,40412
1749337778.653846951,19323,-24012,0,141,-135,0,40386
1749337778.708731127,19464,-24147,0,140,-134,0,40394
1749337778.759982767,19745,-24415,0,140,-135,0,40411
1749337778.811744608,19885,-24550,0,145,-138,0,41411
1749337778.865852621,20030,-24688,0,141,-135,0,40381
1749337778.918735493,20312,-24958,0,140,-134,0,40397
1749337778.968880269,20452,-25092,0,146,-140,0,41844
1749337779.023731611,20598,-25232,0,140,-135,0,40409
1749337779.071962046,20879,-25502,0,140,-135,0,40413
1749337779.125763023,21019,-25637,0,140,-136,0,40607
1749337779.175810670,21159,-25773,0,140,-135,0,40394
1749337779.230929474,21299,-25908,0,140,-134,0,40401
1749337779.281834672,21579,-26177,0,144,-138,0,41596
1749337779.337700731,21723,-26315,0,140,-135,0,40381
1749337779.388868204,21863,-26450,0,141,-134,0,40396
1749337779.441904779,22148,-26722,0,140,-135,0,40397
1749337779.493844471,22288,-26857,0,141,-135,0,40392
1749337779.549766418,22429,-26992,0,141,-130,0,40416
1749337779.608891996,22711,-27250,0,141,-128,0,40599
1749337779.663808542,22852,-27378,0,141,-129,0,40371
1749337779.720885816,22993,-27507,0,140,-129,0,40394
1749337779.775797602,23274,-27766,0,144,-133,0,41056
1749337779.830917314,23418,-27899,0,140,-131,0,40379
1749337779.885800248,23558,-28030,0,141,-131,0,40380
1749337779.938834416,23840,-28294,0,140,-132,0,40399
1749337779.995884523,23980,-28426,0,142,-134,0,40677
1749337780.052926724,24262,-28693,0,140,-133,0,40402
1749337780.105819151,24402,-28826,0,141,-133,0,40388
1749337780.160916233,24543,-28959,0,141,-136,0,41000
1749337780.213791493,24825,-29228,0,140,-134,0,40399
1749337780.270920656,24965,-29362,0,140,-134,0,40387
1749337780.323915139,25105,-29496,0,141,-134,0,40412
1749337780.381945537,25389,-29767,0,140,-134,0,40411
1749337780.439947103,25529,-29901,0,141,-134,0,40383
1749337780.492929066,25670,-30035,0,144,-137,0,41290
1749337780.544769500,25954,-30306,0,141,-135,0,40402
1749337780.593972429,26095,-30441,0,141,-135,0,40401
1749337780.646940060,26236,-30576,0,141,-134,0,40397
1749337780.701812698,26519,-30846,0,141,-135,0,40414
1749337780.752972153,26660,-30981,0,141,-135,0,40382
1749337780.806825538,26801,-31116,0,141,-135,0,40412
1749337780.862946577,27085,-31386,0,142,-134,0,40390
1749337780.914828751,27227,-31520,0,141,-135,0,40391
1749337780.969922610,27368,-31655,0,141,-135,0,40396
1749337781.022818130,27650,-31925,0,142,-136,0,40651
1749337781.076942828,27792,-32061,0,141,-136,0,40376
1749337781.133813011,27933,-32197,0,141,-135,0,40405
1749337781.193897787,28215,-32468,0,143,-138,0,41022
1749337781.249816124,28358,-32606,0,140,-136,0,40384
1749337781.302928605,28498,-32742,0,141,-136,0,40389
1749337781.355817236,28780,-33014,0,140,-136,0,40405
1749337781.408944532,28920,-33150,0,142,-137,0,40718
1749337781.463890393,29062,-33287,0,141,-136,0,40388
1749337781.522950471,29344,-33559,0,140,-136,0,40409
1749337781.578810196,29484,-33695,0,144,-138,0,40962
1749337781.632958394,29769,-33969,0,142,-136,0,40413
1749337781.685838914,29911,-34105,0,141,-136,0,40383
1749337781.737969753,30052,-34241,0,141,-136,0,40411
1749337781.792014896,30338,-34516,0,141,-135,0,40407
1749337781.844965805,30479,-34651,0,142,-136,0,40367
1749337781.892947519,30621,-34787,0,144,-139,0,41320
1749337781.947952990,30765,-34926,0,142,-136,0,40408
1749337782.002961053,31027,-35177,0,90,-85,0,40390
1749337782.057013030,31117,-35262,0,64,-59,0,40375
1749337782.110921544,31181,-35321,0,44,-40,0,40656
1749337782.159939141,31254,-35386,0,11,-22,0,40398
1749337782.211974258,31265,-35408,0,-1,-26,0,40400
1749337782.264895611,31264,-35434,0,0,-29,0,40993
1749337782.313003139,31263,-35495,0,-4,-33,0,40403
1749337782.365910789,31259,-35528,0,-18,-36,0,40366
1749337782.420975796,31241,-35564,0,-25,-36,0,40396
1749337782.472046567,31216,-35600,0,-28,-38,0,40713
1749337782.527891848,31156,-35676,0,-33,-40,0,40396
1749337782.579011896,31123,-35716,0,-35,-39,0,40367
1749337782.632889189,31088,-35755,0,-37,-40,0,40982
1749337782.685016953,31014,-35835,0,-38,-41,0,40406
1749337782.736934275,30976,-35876,0,-38,-40,0,40367
1749337782.788014046,30938,-35916,0,-38,-41,0,40389
1749337782.844000548,30900,-35957,0,-40,-41,0,40783
1749337782.899054038,30821,-36039,0,-39,-40,0,40394
1749337782.956965029,30782,-36079,0,-39,-41,0,40390
1749337783.004961391,30703,-36161,0,-39,-41,0,40397
1749337783.060940172,30664,-36202,0,-40,-41,0,40370
1749337783.111057652,30624,-36243,0,-39,-40,0,40403
1749337783.168015001,30585,-36283,0,-39,-41,0,40381
1749337783.219988100,30505,-36366,0,-39,-41,0,40406
1749337783.277015837,30466,-36407,0,-40,-41,0,40367
1749337783.327924998,30386,-36490,0,-39,-41,0,40391
1749337783.382033826,30347,-36531,0,-40,-40,0,40362
1749337783.439029582,30307,-36571,0,-39,-41,0,40406
1749337783.494072793,30228,-36653,0,-40,-41,0,40681
1749337783.547926919,30188,-36694,0,-40,-41,0,40368
1749337783.606985404,30148,-36735,0,-40,-41,0,40396
1749337783.657945546,30069,-36817,0,-41,-41,0,41063
1749337783.712019671,30028,-36858,0,-39,-41,0,40376
1749337783.764972190,29989,-36899,0,-40,-41,0,40384
1749337783.823028792,29909,-36981,0,-40,-41,0,40407
1749337783.873988952,29869,-37022,0,-40,-41,0,40927
1749337783.931044560,29829,-37063,0,-40,-41,0,40384
1749337783.984936852,29750,-37145,0,-40,-41,0,40400
1749337784.039052384,29710,-37186,0,-40,-41,0,40789
1749337784.093973170,29670,-37227,0,-40,-41,0,40374
1749337784.147081318,29590,-37309,0,-39,-41,0,40390
1749337784.201007814,29551,-37350,0,-40,-40,0,40365
1749337784.258103847,29511,-37390,0,-40,-41,0,40708
1749337784.306129765,29432,-37472,0,-40,-40,0,40398
1749337784.358128012,29392,-37512,0,-39,-41,0,40375
1749337784.412100396,29353,-37553,0,-40,-42,0,41002
1749337784.468167972,29274,-37635,0,-40,-41,0,40404
1749337784.524013679,29234,-37676,0,-39,-41,0,40380
1749337784.581157138,29195,-37717,0,-39,-41,0,40387
1749337784.631066138,29115,-37799,0,-39,-41,0,40403
1749337784.687244898,29076,-37840,0,-40,-41,0,40371
1749337784.742047537,29036,-37881,0,-40,-42,0,41289
1749337784.797104619,28957,-37964,0,-40,-41,0,40394
1749337784.849033718,28917,-38005,0,-39,-40,0,40388
1749337784.904115800,28878,-38045,0,-39,-41,0,40383
1749337784.955054738,28799,-38128,0,-39,-41,0,40385
1749337785.005103403,28760,-38169,0,-40,-41,0,40367
1749337785.059053232,28720,-38210,0,-39,-40,0,40401
1749337785.118073607,28681,-38250,0,-40,-42,0,41074
1749337785.171009571,28601,-38333,0,-39,-41,0,40370
1749337785.231132791,28562,-38374,0,-40,-41,0,40369
1749337785.285050157,28483,-38456,0,-40,-41,0,40685
1749337785.340278349,28443,-38497,0,-39,-41,0,40394
1749337785.400195218,28404,-38538,0,-40,-40,0,40384
1749337785.459202889,28332,-38611,0,-21,-22,0,41041
1749337785.517097937,28311,-38633,0,-12,-11,0,40361
1749337785.574127100,28294,-38650,0,0,0,0,40368
1749337785.627041435,28294,-38650,0,0,0,0,40378
1749337785.678203964,28305,-38664,0,30,-39,0,40391
1749337785.729069273,28335,-38703,0,54,-59,0,40383
1749337785.784120188,28389,-38762,0,74,-77,0,40406
1749337785.838051591,28463,-38839,0,91,-91,0,40690
1749337785.892210863,28655,-39030,0,110,-109,0,40395
1749337785.942016567,28765,-39139,0,118,-115,0,40395
1749337785.994127128,28883,-39254,0,123,-120,0,40394
1749337786.052077657,29136,-39501,0,130,-126,0,40395
1749337786.109141209,29266,-39627,0,133,-128,0,40378
1749337786.162171432,29399,-39755,0,137,-133,0,41241
1749337786.217165255,29672,-40018,0,137,-132,0,40411
1749337786.265097284,29809,-40150,0,138,-132,0,40378
1749337786.316170036,29947,-40282,0,138,-132,0,40381
1749337786.367123085,30226,-40548,0,139,-133,0,40410
1749337786.424154434,30365,-40681,0,139,-134,0,40370
1749337786.475088705,30504,-40815,0,140,-133,0,40402
1749337786.529129978,30644,-40948,0,141,-135,0,40989
1749337786.582163349,30924,-41217,0,140,-133,0,40396
1749337786.641148520,31064,-41350,0,140,-134,0,40404
1749337786.695128867,31349,-41621,0,140,-134,0,40395
1749337786.749319842,31489,-41755,0,140,-134,0,40401
1749337786.799072805,31629,-41889,0,140,-134,0,40397
1749337786.857294647,31769,-42023,0,142,-136,0,40971
1749337786.913113966,32052,-42293,0,140,-135,0,40398
1749337786.966155744,32192,-42428,0,140,-134,0,40398
1749337787.020071295,32472,-42696,0,142,-137,0,40863
1749337787.078242230,32614,-42833,0,140,-134,0,40376
1749337787.135122376,32754,-42967,0,140,-135,0,40402
1749337787.187229270,33035,-43237,0,141,-135,0,40831
1749337787.240195104,33176,-43372,0,141,-135,0,40395
1749337787.294266932,33317,-43507,0,141,-134,0,40393
1749337787.350170713,33599,-43776,0,141,-135,0,40419
1749337787.407230951,33740,-43911,0,143,-136,0,40990
1749337787.462287199,33883,-44047,0,141,-136,0,40400
1749337787.514266131,34165,-44318,0,145,-139,0,41597
1749337787.569130270,34310,-44457,0,141,-135,0,40389
1749337787.624283147,34451,-44592,0,142,-134,0,40382
1749337787.683203300,34734,-44861,0,141,-135,0,40397
1749337787.736243264,34875,-44996,0,142,-137,0,40780
1749337787.787154369,35158,-45268,0,141,-135,0,40395
1749337787.842240284,35299,-45403,0,141,-135,0,40386
1749337787.895358672,35440,-45538,0,143,-137,0,40945
1749337787.953272127,35583,-45675,0,140,-136,0,40397
1749337788.009242148,35864,-45946,0,140,-136,0,40411
1749337788.061308451,36004,-46082,0,145,-140,0,41612
1749337788.110214511,36289,-46357,0,140,-136,0,40421
1749337788.162325313,36429,-46493,0,141,-135,0,40403
1749337788.213157307,36570,-46628,0,141,-138,0,40987
1749337788.269313235,36711,-46766,0,141,-136,0,40398
1749337788.322161533,36993,-47038,0,141,-136,0,40409
1749337788.376326212,37134,-47174,0,141,-136,0,40379
1749337788.433240524,37275,-47310,0,142,-137,0,40863
1749337788.485340752,37558,-47583,0,141,-136,0,40408
1749337788.540150743,37699,-47719,0,141,-136,0,40397
1749337788.591313643,37840,-47855,0,143,-137,0,40923
1749337788.647170868,38124,-48128,0,141,-136,0,40425
1749337788.699304966,38265,-48264,0,141,-137,0,40375
1749337788.753310221,38406,-48401,0,141,-136,0,40397
1749337788.808324117,38691,-48676,0,142,-137,0,40388
1749337788.860251328,38833,-48813,0,141,-136,0,40392
1749337788.917286880,38974,-48949,0,140,-137,0,40404
1749337788.968228059,39255,-49223,0,141,-136,0,40406
1749337789.025321203,39396,-49359,0,141,-137,0,40381
1749337789.082246441,39537,-49496,0,140,-137,0,40412
1749337789.134302651,39818,-49770,0,141,-137,0,40640
1749337789.191206130,39959,-49907,0,140,-137,0,40383
1749337789.252311382,40099,-50044,0,141,-137,0,40398
1749337789.303330727,40380,-50318,0,145,-141,0,41640
1749337789.364330164,40525,-50459,0,140,-137,0,40401
1749337789.419332932,40806,-50733,0,141,-137,0,40406
1749337789.468353343,40947,-50870,0,145,-140,0,41462
1749337789.517224108,41092,-51010,0,141,-137,0,40389
1749337789.570218220,41233,-51147,0,141,-136,0,40411
1749337789.621160417,41515,-51420,0,143,-139,0,40916
1749337789.678368987,41658,-51559,0,141,-137,0,40393
1749337789.728214894,41799,-51696,0,142,-136,0,40388
1749337789.782327481,42082,-51969,0,141,-136,0,40396
1749337789.837322582,42223,-52105,0,143,-139,0,40841
1749337789.890354064,42366,-52244,0,142,-136,0,40398
1749337789.944334355,42649,-52517,0,141,-137,0,40410
1749337790.000353302,42790,-52654,0,144,-140,0,41167
1749337790.053361580,42934,-52794,0,141,-137,0,40388
1749337790.107366853,43216,-53068,0,140,-136,0,40406
1749337790.160287743,43356,-53204,0,146,-142,0,41804
1749337790.217385425,43502,-53346,0,140,-137,0,40382
1749337790.276330318,43783,-53619,0,141,-139,0,40830
1749337790.329404596,43924,-53758,0,141,-137,0,40386
1749337790.387377384,44065,-53895,0,140,-136,0,40389
1749337790.442474669,44346,-54168,0,141,-137,0,40402
1749337790.492317965,44487,-54305,0,142,-138,0,40686
1749337790.549419795,44629,-54443,0,141,-137,0,40382
1749337790.604288618,44912,-54717,0,120,-116,0,40393
1749337790.659433959,45032,-54833,0,91,-87,0,40952
1749337790.709341866,45186,-54979,0,45,-40,0,40395
1749337790.766438492,45231,-55019,0,29,-25,0,40385
1749337790.820345098,45260,-55044,0,19,-15,0,40393
1749337790.872443493,45282,-55073,0,-2,-21,0,40382
1749337790.923292987,45280,-55094,0,-1,-24,0,40374
1749337790.982440509,45279,-55118,0,-1,-28,0,40408
1749337791.038300623,45269,-55178,0,-22,-33,0,40393
1749337791.093415371,45247,-55211,0,-26,-36,0,40363
1749337791.148297102,45221,-55247,0,-30,-36,0,40391
1749337791.197380606,45158,-55320,0,-35,-39,0,40658
1749337791.248428303,45123,-55359,0,-36,-39,0,40387
1749337791.305300856,45087,-55398,0,-36,-39,0,40395
1749337791.362509444,45013,-55477,0,-39,-40,0,41159
1749337791.414363377,44974,-55517,0,-38,-40,0,40361
1749337791.471441355,44936,-55557,0,-39,-40,0,40388
1749337791.525384962,44858,-55638,0,-39,-40,0,40401
1749337791.581426871,44819,-55678,0,-40,-42,0,41129
1749337791.630278951,44779,-55720,0,-39,-40,0,40376
1749337791.684493815,44700,-55801,0,-40,-41,0,41321
1749337791.736327674,44660,-55842,0,-39,-41,0,40374
1749337791.788440217,44621,-55883,0,-40,-41,0,40405
1749337791.840305187,44581,-55924,0,-39,-41,0,40396
1749337791.894483847,44502,-56006,0,-40,-41,0,40821
1749337791.949336782,44462,-56047,0,-39,-41,0,40383
1749337792.003495776,44423,-56088,0,-40,-40,0,40385
1749337792.056411481,44344,-56169,0,-40,-42,0,40939
1749337792.111479489,44304,-56211,0,-40,-40,0,40375
1749337792.165378781,44264,-56251,0,-39,-41,0,40370
1749337792.220494140,44186,-56333,0,-40,-41,0,40395
1749337792.274402784,44146,-56374,0,-39,-41,0,40742
1749337792.324460467,44107,-56415,0,-40,-41,0,40377
1749337792.379417013,44028,-56497,0,-39,-41,0,40420
1749337792.430632727,43989,-56538,0,-40,-42,0,41000
1749337792.483408396,43949,-56580,0,-39,-41,0,40376
1749337792.535552957,43870,-56662,0,-39,-41,0,40393
1749337792.585377882,43831,-56703,0,-39,-41,0,40391
1749337792.644467793,43792,-56744,0,-40,-42,0,40697
1749337792.698440344,43713,-56827,0,-39,-41,0,40394
1749337792.749494393,43674,-56868,0,-39,-41,0,40364
1749337792.802419264,43635,-56909,0,-40,-41,0,40989
1749337792.857477439,43555,-56991,0,-39,-42,0,40404
1749337792.908575024,43516,-57033,0,-39,-41,0,40369
1749337792.962501575,43477,-57074,0,-40,-41,0,40386
1749337793.018379911,43437,-57115,0,-40,-41,0,41080
1749337793.073482937,43358,-57197,0,-39,-41,0,40407
1749337793.125398833,43319,-57238,0,-41,-43,0,41631
1749337793.180516155,43278,-57281,0,-39,-41,0,40369
1749337793.232405736,43200,-57363,0,-40,-41,0,40398
1749337793.285545606,43160,-57404,0,-39,-41,0,40386
1749337793.338411200,43121,-57445,0,-40,-41,0,40691
1749337793.394514480,43042,-57527,0,-40,-41,0,40393
1749337793.448498808,43002,-57568,0,-39,-41,0,40362
1749337793.505563490,42963,-57609,0,-40,-42,0,40965
1749337793.560430276,42883,-57692,0,-40,-41,0,40397
1749337793.615567543,42843,-57733,0,-40,-40,0,40389
1749337793.671452250,42763,-57814,0,-40,-42,0,40702
1749337793.728562690,42723,-57856,0,-40,-41,0,40368
1749337793.785448317,42683,-57897,0,-41,-41,0,40398
1749337793.835523686,42602,-57979,0,-40,-41,0,41050
1749337793.890436639,42562,-58020,0,-41,-41,0,40378
1749337793.942602348,42521,-58061,0,-40,-41,0,40372
1749337793.997425616,42441,-58143,0,-41,-41,0,40391
1749337794.053543377,42400,-58184,0,-32,-34,0,40779
1749337794.111566517,42368,-58218,0,-22,-21,0,40370
1749337794.163663430,42333,-58251,0,-7,-6,0,40400
1749337794.213412967,42326,-58257,0,0,-1,0,41005
1749337794.263566613,42326,-58258,0,0,0,0,40370
1749337794.322533840,42337,-58271,0,30,-39,0,40411
1749337794.382665708,42367,-58310,0,55,-61,0,40389
1749337794.439601224,42499,-58450,0,90,-92,0,40414
1749337794.497563104,42589,-58542,0,103,-102,0,40394
1749337794.549466037,42692,-58644,0,112,-110,0,40402
1749337794.607586157,42923,-58871,0,123,-121,0,40392
1749337794.662417110,43046,-58992,0,127,-123,0,40382
1749337794.715598647,43173,-59115,0,131,-127,0,40408
1749337794.769607216,43436,-59370,0,136,-131,0,40722
1749337794.820566358,43572,-59501,0,136,-130,0,40380
1749337794.874537742,43708,-59631,0,136,-132,0,40384
1749337794.925568791,43983,-59895,0,141,-135,0,41194
1749337794.982508325,44124,-60030,0,138,-133,0,40386
1749337795.037591536,44262,-60163,0,139,-134,0,40386
1749337795.089528968,44540,-60431,0,144,-138,0,41493
1749337795.144578995,44684,-60569,0,139,-134,0,40390
1749337795.200500516,44823,-60703,0,141,-135,0,40409
1749337795.255578116,45104,-60972,0,142,-137,0,40975
1749337795.307595974,45246,-61109,0,141,-135,0,40388
1749337795.362570890,45387,-61244,0,141,-134,0,40394
1749337795.417621805,45668,-61514,0,141,-135,0,40382
1749337795.475655481,45809,-61649,0,142,-137,0,40762
1749337795.528491871,46092,-61921,0,140,-135,0,40397
1749337795.585713626,46232,-62056,0,141,-135,0,40409
1749337795.636517361,46373,-62191,0,142,-137,0,40907
1749337795.692609400,46515,-62328,0,140,-136,0,40387
1749337795.746486526,46796,-62599,0,140,-136,0,40410
1749337795.806618116,46936,-62735,0,141,-136,0,40397
1749337795.855516825,47219,-63009,0,140,-135,0,40391
1749337795.913693519,47359,-63144,0,140,-135,0,40385
1749337795.966524669,47499,-63279,0,145,-140,0,41566
1749337796.020670978,47784,-63554,0,140,-135,0,40405
1749337796.072580929,47924,-63689,0,140,-136,0,40383
1749337796.125633096,48064,-63825,0,141,-135,0,40406
1749337796.184570767,48347,-64097,0,141,-135,0,40411
1749337796.243673030,48488,-64232,0,141,-136,0,40369
1749337796.295570740,48629,-64368,0,141,-135,0,40415
1749337796.352642848,48914,-64641,0,141,-136,0,40393
1749337796.408470258,49055,-64777,0,141,-136,0,40404
1749337796.464683741,49196,-64913,0,141,-136,0,40393
1749337796.516588692,49481,-65188,0,141,-136,0,40404
1749337796.569639989,49622,-65324,0,142,-136,0,40370
1749337796.622692545,49764,-65460,0,140,-136,0,40402
1749337796.679662097,50048,-65734,0,141,-137,0,40409
1749337796.732509914,50189,-65871,0,141,-136,0,40376
1749337796.785691265,50330,-66007,0,141,-136,0,40383
1749337796.841503880,50616,-66284,0,141,-136,0,40400
1749337796.895666559,50757,-66420,0,140,-136,0,40385
1749337796.952543334,50897,-66556,0,141,-137,0,40387
1749337797.006680069,51180,-66831,0,141,-136,0,40406
1749337797.057550082,51321,-66967,0,141,-136,0,40377
1749337797.111681613,51462,-67103,0,140,-136,0,40418
1749337797.164648818,51743,-67376,0,143,-138,0,40985
1749337797.220675320,51886,-67514,0,141,-136,0,40389
1749337797.272749344,52027,-67650,0,141,-136,0,40389
1749337797.327728482,52313,-67927,0,142,-136,0,40395
1749337797.382690175,52455,-68063,0,140,-137,0,40383
1749337797.437725275,52595,-68200,0,142,-136,0,40396
1749337797.489626616,52878,-68473,0,143,-138,0,40933
1749337797.543686555,53021,-68611,0,142,-137,0,40369
1749337797.601604546,53163,-68748,0,141,-137,0,40394
1749337797.658688654,53445,-69022,0,143,-139,0,40853
1749337797.710674030,53588,-69161,0,141,-136,0,40384
1749337797.764713359,53871,-69434,0,140,-137,0,40400
1749337797.816631050,54011,-69571,0,145,-141,0,41629
1749337797.869717588,54156,-69712,0,141,-137,0,40400
1749337797.927665561,54297,-69849,0,141,-137,0,40413
1749337797.977705170,54579,-70123,0,142,-139,0,40943
1749337798.035655477,54721,-70262,0,140,-137,0,40390
1749337798.094705980,55002,-70536,0,140,-138,0,40415
1749337798.150597965,55142,-70674,0,141,-137,0,40365
1749337798.201769050,55283,-70811,0,141,-137,0,40619
1749337798.255582601,55565,-71085,0,141,-138,0,40399
1749337798.312754782,55706,-71223,0,140,-137,0,40397
1749337798.364633215,55846,-71360,0,143,-139,0,40995
1749337798.420724087,56131,-71636,0,141,-138,0,40408
1749337798.477655325,56272,-71774,0,141,-137,0,40380
1749337798.538758929,56413,-71911,0,141,-137,0,40394
1749337798.588639299,56699,-72189,0,141,-137,0,40388
1749337798.640769230,56840,-72326,0,142,-138,0,40405
1749337798.695728349,56982,-72464,0,144,-140,0,41210
1749337798.748786387,57268,-72741,0,141,-137,0,40404
1749337798.805743958,57409,-72878,0,141,-136,0,40396
1749337798.862733251,57691,-73151,0,143,-138,0,40844
1749337798.913712004,57834,-73289,0,141,-136,0,40397
1749337798.971750124,57975,-73425,0,141,-137,0,40401
1749337799.027676886,58257,-73699,0,143,-138,0,40988
1749337799.080894645,58400,-73837,0,140,-137,0,40378
1749337799.135718339,58540,-73974,0,141,-137,0,40402
1749337799.185775893,58821,-74248,0,141,-136,0,40406
1749337799.236651331,58962,-74384,0,142,-138,0,40772
1749337799.287827305,59104,-74522,0,141,-137,0,40388
1749337799.339759775,59245,-74659,0,120,-116,0,40394
1749337799.395728981,59455,-74860,0,64,-60,0,40902
1749337799.448740481,59519,-74920,0,45,-40,0,40373
1749337799.499768882,59564,-74960,0,29,-25,0,40377
1749337799.554653094,59602,-75008,0,-1,-26,0,40397
1749337799.608739755,59601,-75034,0,-2,-30,0,40758
1749337799.661651294,59599,-75064,0,-1,-31,0,40383
1749337799.715757584,59593,-75130,0,-19,-35,0,40407
1749337799.765695750,59574,-75165,0,-25,-37,0,40375
1749337799.819850466,59549,-75202,0,-29,-38,0,40400
1749337799.873710407,59488,-75279,0,-34,-39,0,40385
1749337799.923789201,59454,-75318,0,-35,-40,0,40384
1749337799.976672980,59419,-75358,0,-36,-40,0,40392
1749337800.031871080,59383,-75398,0,-38,-40,0,40636
1749337800.083760142,59308,-75478,0,-38,-41,0,40393
1749337800.134833487,59270,-75519,0,-39,-41,0,40393
1749337800.185718221,59231,-75560,0,-39,-41,0,41404
1749337800.241818538,59153,-75642,0,-39,-41,0,40389
1749337800.295757959,59114,-75683,0,-39,-40,0,40379
1749337800.346862248,59075,-75723,0,-40,-42,0,41444
1749337800.400900799,58996,-75806,0,-39,-41,0,40406
1749337800.457859462,58957,-75847,0,-39,-41,0,40368
1749337800.506829337,58918,-75888,0,-40,-41,0,41035
1749337800.558842139,58839,-75970,0,-39,-41,0,40392
1749337800.610795498,58800,-76011,0,-40,-42,0,40387
1749337800.664862529,58760,-76053,0,-39,-41,0,40395
1749337800.717788716,58721,-76094,0,-39,-41,0,40552
1749337800.775070229,58642,-76176,0,-39,-41,0,40390
1749337800.828887522,58603,-76217,0,-39,-42,0,40390
1749337800.887959118,58524,-76300,0,-39,-41,0,40392
1749337800.938826482,58485,-76341,0,-39,-42,0,40391
1749337800.995891053,58446,-76383,0,-39,-41,0,40376
1749337801.049764400,58366,-76466,0,-39,-41,0,40396
1749337801.101877350,58327,-76507,0,-39,-41,0,40365
1749337801.156754507,58288,-76548,0,-40,-42,0,41275
1749337801.216850320,58209,-76631,0,-39,-42,0,40408
1749337801.270815630,58170,-76673,0,-39,-41,0,40366
1749337801.321873993,58131,-76714,0,-39,-41,0,40392
1749337801.375767637,58051,-76797,0,-39,-41,0,40387
1749337801.427901457,58012,-76838,0,-39,-41,0,40399
1749337801.481764249,57973,-76879,0,-41,-42,0,41601
1749337801.537906880,57892,-76963,0,-40,-41,0,40389
1749337801.587749454,57852,-77004,0,-39,-41,0,40370
1749337801.641908004,57813,-77045,0,-40,-41,0,40409
1749337801.699800070,57733,-77128,0,-40,-41,0,40402
1749337801.748969240,57693,-77169,0,-40,-41,0,40357
1749337801.802783180,57653,-77210,0,-41,-41,0,40385
1749337801.853773303,57572,-77292,0,-40,-41,0,40388
1749337801.905937345,57532,-77333,0,-40,-41,0,40379
1749337801.958827717,57492,-77374,0,-40,-41,0,40396
1749337802.011912569,57452,-77415,0,-40,-41,0,40384
1749337802.060753981,57371,-77497,0,-40,-41,0,40398
1749337802.112943264,57331,-77538,0,-40,-41,0,40387
1749337802.164940530,57291,-77579,0,-40,-41,0,40401
1749337802.212049304,57251,-77620,0,-41,-41,0,40845
1749337802.263797404,57170,-77702,0,-40,-41,0,40398
1749337802.321839469,57130,-77743,0,-40,-41,0,40393
1749337802.375981723,57090,-77784,0,-40,-41,0,40393
1749337802.428924501,57010,-77867,0,-41,-41,0,40392
1749337802.483932157,56969,-77908,0,-40,-41,0,40372
1749337802.535853367,56929,-77949,0,-40,-41,0,40405
1749337802.590932560,56848,-78031,0,-41,-41,0,40389
1749337802.641867072,56807,-78072,0,-40,-41,0,40394
1749337802.695940419,56767,-78113,0,-41,-41,0,40392
1749337802.749965025,56694,-78187,0,-22,-21,0,41043
1749337802.802018568,56672,-78208,0,-14,-12,0,40351
1749337802.855924970,56658,-78220,0,-4,-6,0,40393
1749337802.911004959,56654,-78226,0,9,-15,0,40703
1749337802.966863259,56663,-78241,0,29,-40,0,40373
1749337803.014973861,56692,-78281,0,54,-62,0,40402
1749337803.067832603,56746,-78343,0,73,-79,0,40392
1749337803.117986693,56909,-78515,0,103,-103,0,40744
1749337803.171029453,57012,-78618,0,111,-110,0,40380
1749337803.223877973,57123,-78728,0,117,-116,0,40386
1749337803.274999558,57364,-78965,0,129,-126,0,40934
1749337803.326885120,57493,-79091,0,130,-126,0,40391
1749337803.378993163,57623,-79217,0,133,-129,0,40399
1749337803.432960047,57756,-79346,0,135,-129,0,40393
1749337803.488974234,58027,-79606,0,139,-133,0,40749
1749337803.541904457,58166,-79739,0,138,-132,0,40391
1749337803.595008217,58304,-79871,0,139,-132,0,40384
1749337803.651926510,58581,-80136,0,141,-136,0,40948
1749337803.706023560,58722,-80272,0,139,-134,0,40382
1749337803.757953956,58861,-80406,0,139,-134,0,40398
1749337803.812020969,59140,-80673,0,140,-135,0,40395
1749337803.867893824,59280,-80808,0,141,-135,0,40728
1749337803.918192598,59421,-80943,0,140,-135,0,40386
1749337803.970903249,59702,-81212,0,140,-134,0,40403
1749337804.026003960,59842,-81346,0,143,-138,0,41194
1749337804.079874993,59985,-81484,0,141,-134,0,40390
1749337804.132976437,60266,-81753,0,141,-134,0,40417
1749337804.183941430,60407,-81887,0,146,-140,0,41775
1749337804.241012316,60553,-82027,0,140,-134,0,40393
1749337804.298914567,60835,-82296,0,144,-138,0,41575
1749337804.356145432,60979,-82434,0,141,-135,0,40396
1749337804.407055426,61120,-82569,0,141,-135,0,40386
1749337804.463057317,61402,-82839,0,141,-135,0,40405
1749337804.515935781,61543,-82974,0,142,-136,0,40776
1749337804.568112657,61685,-83110,0,140,-134,0,40393
1749337804.618926355,61966,-83379,0,140,-134,0,40404
1749337804.674122695,62106,-83513,0,143,-135,0,40899
1749337804.727935969,62249,-83648,0,140,-135,0,40375
1749337804.781063302,62529,-83917,0,141,-134,0,40402
1749337804.831938222,62670,-84051,0,140,-135,0,40414
1749337804.883070455,62810,-84186,0,141,-135,0,40657
1749337804.943952282,63092,-84456,0,141,-135,0,40419
1749337805.001086352,63233,-84591,0,140,-135,0,40395
1749337805.053943464,63373,-84726,0,143,-136,0,40905
1749337805.104066722,63657,-84997,0,141,-135,0,40405
1749337805.156964390,63798,-85132,0,142,-135,0,40404
1749337805.207044703,63940,-85267,0,141,-136,0,40388
1749337805.261951896,64223,-85538,0,141,-135,0,40387
1749337805.313053333,64364,-85673,0,142,-134,0,40379
1749337805.369955219,64506,-85807,0,141,-135,0,40413
1749337805.423101386,64790,-86079,0,142,-135,0,40409
1749337805.474967485,64932,-86214,0,141,-136,0,40368
1749337805.530069307,65073,-86350,0,141,-135,0,40397
1749337805.582923901,65355,-86620,0,144,-138,0,41146
1749337805.639053551,65499,-86758,0,141,-136,0,40389
1749337805.694978813,65640,-86894,0,140,-135,0,40401
1749337805.749021512,65925,-87169,0,140,-135,0,40417
1749337805.803922446,66065,-87304,0,140,-136,0,40376
1749337805.856146451,66205,-87440,0,141,-136,0,40426
1749337805.907035889,66346,-87576,0,145,-139,0,41615
1749337805.963055854,66631,-87851,0,141,-136,0,40415
1749337806.017955622,66772,-87987,0,141,-136,0,40388
1749337806.074246808,66913,-88123,0,142,-137,0,41007
1749337806.129978941,67196,-88396,0,141,-136,0,40396
1749337806.185098930,67337,-88532,0,141,-136,0,40391
1749337806.239969605,67624,-88809,0,141,-136,0,40416
1749337806.298245595,67765,-88945,0,141,-136,0,40375
1749337806.350998689,67906,-89081,0,141,-136,0,40386
1749337806.402137478,68191,-89354,0,141,-136,0,40400
1749337806.456066103,68332,-89490,0,141,-136,0,40401
1749337806.515136662,68473,-89626,0,141,-137,0,40391
1749337806.567992478,68756,-89899,0,142,-137,0,40677
1749337806.624095387,68898,-90036,0,141,-136,0,40381
1749337806.679010433,69039,-90172,0,141,-136,0,40399
1749337806.737423292,69321,-90445,0,143,-139,0,41012
1749337806.792979186,69464,-90584,0,141,-136,0,40379
1749337806.846155389,69746,-90856,0,141,-137,0,40433
1749337806.900075162,69887,-90993,0,140,-136,0,40383
1749337806.955094374,70027,-91129,0,143,-138,0,40990
1749337807.006020108,70310,-91404,0,141,-137,0,40398
1749337807.059129997,70451,-91541,0,141,-137,0,40402
1749337807.108116094,70592,-91678,0,142,-137,0,40699
1749337807.157150394,70734,-91815,0,141,-137,0,40402
1749337807.208045425,71016,-92089,0,142,-137,0,40407
1749337807.259022252,71158,-92226,0,145,-141,0,41628
1749337807.315225345,71303,-92367,0,142,-137,0,40398
1749337807.368073662,71445,-92504,0,141,-137,0,40396
1749337807.423222724,71728,-92778,0,143,-139,0,40929
1749337807.476150262,71871,-92917,0,141,-137,0,40401
1749337807.530197942,72012,-93054,0,142,-137,0,40393
1749337807.584041493,72295,-93328,0,141,-137,0,40395
1749337807.639155889,72436,-93465,0,143,-139,0,40698
1749337807.690055902,72579,-93604,0,141,-137,0,40409
1749337807.743235994,72862,-93878,0,141,-137,0,40408
1749337807.797037397,73003,-94015,0,143,-139,0,40959
1749337807.851239224,73146,-94154,0,140,-137,0,40396
1749337807.903216305,73427,-94428,0,120,-116,0,40395
1749337807.959202789,73547,-94544,0,91,-88,0,41641
1749337808.014136982,73638,-94632,0,63,-59,0,40364
1749337808.068258680,73745,-94731,0,30,-26,0,40396
1749337808.124121331,73775,-94757,0,10,-23,0,41007
1749337808.180245296,73785,-94780,0,-1,-26,0,40387
1749337808.234116514,73783,-94835,0,-1,-33,0,40395
1749337808.289281113,73782,-94868,0,-11,-34,0,40398
1749337808.343127461,73771,-94902,0,-20,-37,0,41405
1749337808.398195579,73726,-94976,0,-29,-38,0,40403
1749337808.451240154,73697,-95014,0,-31,-40,0,41252
1749337808.507296471,73666,-95054,0,-34,-40,0,40382
1749337808.562121461,73597,-95133,0,-36,-41,0,40412
1749337808.612375273,73561,-95174,0,-36,-40,0,40375
1749337808.667215726,73525,-95214,0,-38,-41,0,40757
1749337808.723231432,73449,-95296,0,-38,-41,0,40389
1749337808.772133159,73411,-95337,0,-38,-41,0,40382
1749337808.825282029,73373,-95378,0,-40,-42,0,40973
1749337808.879125821,73295,-95461,0,-39,-41,0,40400
1749337808.931425196,73256,-95502,0,-40,-41,0,40376
1749337808.982152783,73216,-95543,0,-39,-42,0,40404
1749337809.038283007,73138,-95626,0,-39,-42,0,40395
1749337809.088102007,73099,-95668,0,-39,-41,0,40396
1749337809.146268701,73060,-95709,0,-39,-42,0,40388
1749337809.197142917,72981,-95793,0,-39,-41,0,40387
1749337809.246308568,72942,-95834,0,-39,-41,0,40369
1749337809.299126718,72903,-95875,0,-40,-42,0,40403
1749337809.352589290,72863,-95917,0,-39,-42,0,40382
1749337809.407334151,72784,-96000,0,-40,-41,0,40392
1749337809.458259015,72744,-96041,0,-40,-42,0,40394
1749337809.511324830,72704,-96083,0,-40,-41,0,40389
1749337809.562206583,72624,-96166,0,-40,-41,0,40410
1749337809.618297826,72584,-96207,0,-40,-42,0,40382
1749337809.672122933,72544,-96249,0,-40,-41,0,40395
1749337809.722214264,72465,-96331,0,-41,-42,0,41303
1749337809.772251263,72424,-96373,0,-40,-40,0,40382
1749337809.829288204,72384,-96413,0,-40,-42,0,40396
1749337809.882191760,72344,-96455,0,-41,-42,0,41596
1749337809.937393415,72263,-96538,0,-40,-41,0,40392
1749337809.989161978,72223,-96579,0,-39,-42,0,40388
1749337810.041318039,72184,-96621,0,-40,-41,0,40387
1749337810.092216421,72103,-96703,0,-40,-41,0,40387
1749337810.144332816,72063,-96744,0,-40,-41,0,40370
1749337810.199166639,72023,-96785,0,-40,-41,0,40400
1749337810.255325344,71943,-96867,0,-40,-41,0,40405
1749337810.314219312,71903,-96908,0,-40,-41,0,40368
1749337810.367285905,71863,-96949,0,-40,-41,0,40380
1749337810.426326149,71782,-97031,0,-40,-41,0,40744
1749337810.481336342,71742,-97072,0,-40,-40,0,40385
1749337810.536267239,71662,-97153,0,-40,-41,0,40389
1749337810.589265666,71622,-97194,0,-40,-41,0,40846
1749337810.641319931,71582,-97235,0,-40,-41,0,40382
1749337810.694392931,71502,-97317,0,-40,-40,0,40382
1749337810.743248381,71462,-97357,0,-40,-41,0,40373
1749337810.796339306,71422,-97398,0,-41,-42,0,40739
1749337810.849244493,71381,-97440,0,-40,-41,0,40383
1749337810.907366928,71301,-97521,0,-40,-41,0,40385
1749337810.963301782,71261,-97562,0,-41,-42,0,41586
1749337811.017358240,71220,-97604,0,-40,-42,0,40382
1749337811.068224233,71140,-97687,0,-40,-41,0,40413
1749337811.119364170,71100,-97728,0,-41,-41,0,40374
1749337811.176238668,71059,-97769,0,-41,-41,0,41263
1749337811.235341560,70978,-97851,0,-40,-41,0,40397
1749337811.288230283,70938,-97892,0,-41,-42,0,41402
1749337811.347331250,70897,-97934,0,-40,-41,0,40381
1749337811.405330945,70824,-98008,0,-21,-21,0,40381
1749337811.459371680,70803,-98029,0,-13,-12,0,40363
1749337811.513280675,70783,-98046,0,-1,0,0,40383
1749337811.568346053,70782,-98046,0,9,-17,0,40369
1749337811.623238914,70791,-98063,0,29,-41,0,40392
1749337811.675424048,70874,-98168,0,73,-80,0,40404
1749337811.728394030,70947,-98248,0,90,-93,0,40389
1749337811.779338950,71037,-98341,0,102,-103,0,40393
1749337811.834446531,71254,-98559,0,119,-117,0,40405
1749337811.893414869,71373,-98676,0,123,-121,0,40395
1749337811.949292001,71496,-98797,0,131,-128,0,41280
1749337812.004392805,71758,-99053,0,133,-129,0,40406
1749337812.052245964,71891,-99182,0,135,-131,0,40371
1749337812.104458876,72026,-99313,0,137,-132,0,40398
1749337812.156289975,72302,-99578,0,138,-133,0,40413
1749337812.210398951,72440,-99711,0,139,-134,0,40379
1749337812.264260076,72579,-99845,0,139,-134,0,40399
1749337812.320425078,72859,-100115,0,139,-134,0,40400
1749337812.375372493,72998,-100249,0,140,-134,0,40377
1749337812.429451284,73138,-100383,0,140,-135,0,40410
1749337812.484287515,73417,-100652,0,143,-137,0,41319
1749337812.536423206,73560,-100789,0,140,-133,0,40387
1749337812.589284503,73700,-100922,0,140,-134,0,40416
1749337812.646434592,73984,-101194,0,140,-134,0,40396
1749337812.701298267,74124,-101328,0,140,-134,0,40377
1749337812.756539144,74264,-101462,0,140,-134,0,40399
1749337812.813308086,74549,-101735,0,141,-135,0,40398
1749337812.870296453,74690,-101870,0,140,-135,0,40381
1749337812.924468410,74830,-102005,0,142,-135,0,40398
1749337812.981378500,75115,-102277,0,141,-135,0,40392
1749337813.030280894,75256,-102412,0,141,-135,0,40395
1749337813.082400566,75397,-102547,0,141,-136,0,40398
1749337813.134336424,75684,-102822,0,141,-135,0,40403
1749337813.189479338,75825,-102957,0,141,-136,0,40401
1749337813.241339975,75966,-103093,0,141,-135,0,40395
1749337813.293417277,76250,-103365,0,142,-136,0,40409
1749337813.342397207,76392,-103501,0,141,-135,0,40382
1749337813.396434628,76533,-103636,0,141,-136,0,40412
1749337813.447451361,76674,-103772,0,145,-140,0,41617
1749337813.503441141,76960,-104047,0,141,-136,0,40418
1749337813.553354233,77101,-104183,0,141,-136,0,40384
1749337813.607459153,77242,-104319,0,142,-138,0,41023
1749337813.659344012,77525,-104592,0,141,-136,0,40410
1749337813.714539371,77666,-104728,0,140,-136,0,40400
1749337813.772404881,77806,-104864,0,141,-136,0,40398
1749337813.826501394,78090,-105138,0,141,-136,0,40389
1749337813.878562177,78231,-105274,0,141,-136,0,40382
1749337813.932489080,78372,-105410,0,141,-135,0,40399
1749337813.990441034,78656,-105682,0,141,-135,0,40421
1749337814.044523177,78797,-105817,0,141,-135,0,40381
1749337814.098458654,78938,-105952,0,142,-136,0,40399
1749337814.153460587,79226,-106228,0,141,-136,0,40402
1749337814.203482753,79367,-106364,0,141,-135,0,40390
1749337814.254480505,79508,-106499,0,142,-136,0,40401
1749337814.305391332,79793,-106773,0,141,-136,0,40400
1749337814.361553518,79934,-106909,0,142,-136,0,40376
1749337814.417545909,80076,-107045,0,141,-135,0,40411
1749337814.471421998,80358,-107316,0,142,-137,0,40683
1749337814.522523583,80500,-107453,0,141,-136,0,40367
1749337814.573384725,80641,-107589,0,141,-136,0,40398
1749337814.628536380,80782,-107725,0,141,-135,0,40407
1749337814.685430451,81066,-107998,0,140,-136,0,40408
1749337814.738548525,81206,-108134,0,141,-135,0,40382
1749337814.793411145,81347,-108269,0,141,-136,0,40390
1749337814.847549861,81633,-108545,0,141,-136,0,40389
1749337814.898537447,81774,-108681,0,141,-136,0,40396
1749337814.951537392,81915,-108817,0,141,-136,0,40398
1749337815.002445182,82200,-109091,0,141,-136,0,40409
1749337815.054537428,82341,-109227,0,142,-136,0,40389
1749337815.107433966,82483,-109363,0,141,-136,0,40398
1749337815.162564436,82765,-109634,0,144,-139,0,41197
1749337815.215450308,82909,-109773,0,142,-136,0,40400
1749337815.268662251,83051,-109909,0,141,-136,0,40391
1749337815.318471714,83337,-110185,0,141,-137,0,40393
1749337815.370527423,83478,-110322,0,142,-136,0,40370
1749337815.426580259,83620,-110458,0,141,-137,0,40413
1749337815.479571074,83761,-110595,0,142,-136,0,40399
1749337815.533508403,84045,-110869,0,142,-137,0,40398
1749337815.583529734,84187,-111006,0,140,-137,0,40379
1749337815.636493698,84327,-111143,0,141,-136,0,40397
1749337815.690552452,84611,-111418,0,141,-137,0,40416
1749337815.743472397,84752,-111555,0,140,-137,0,40388
1749337815.800522690,84892,-111692,0,141,-137,0,40394
1749337815.847429743,85174,-111965,0,141,-138,0,40686
1749337815.901543811,85315,-112103,0,141,-137,0,40389
1749337815.957504869,85456,-112240,0,140,-137,0,40402
1749337816.007538053,85737,-112514,0,143,-138,0,40943
1749337816.059449726,85880,-112652,0,141,-137,0,40378
1749337816.113564646,86021,-112789,0,142,-136,0,40402
1749337816.169510130,86163,-112925,0,141,-137,0,40388
1749337816.223616828,86445,-113199,0,143,-139,0,40824
1749337816.276468959,86588,-113338,0,142,-136,0,40377
1749337816.328617224,86730,-113474,0,141,-137,0,40404
1749337816.384533948,87013,-113747,0,143,-139,0,40914
1749337816.440623839,87156,-113886,0,142,-137,0,40393
1749337816.491579684,87298,-114023,0,141,-137,0,40386
1749337816.546614266,87581,-114297,0,141,-137,0,40405
1749337816.602604139,87722,-114434,0,122,-118,0,41290
1749337816.653645057,87844,-114552,0,90,-87,0,40373
1749337816.710542018,87997,-114699,0,45,-40,0,41387
1749337816.767614847,88042,-114739,0,21,-34,0,40388
1749337816.822504763,88065,-114809,0,-1,-35,0,40398
1749337816.876639146,88064,-114844,0,-1,-38,0,40358
1749337816.929550888,88063,-114882,0,-3,-38,0,40696
1749337816.982665517,88044,-114959,0,-22,-40,0,40405
1749337817.033548881,88022,-114999,0,-27,-40,0,40370
1749337817.093707101,87995,-115039,0,-30,-41,0,41030
1749337817.147544634,87932,-115121,0,-34,-41,0,40400
1749337817.200618597,87898,-115162,0,-36,-41,0,40360
1749337817.257513020,87862,-115203,0,-36,-41,0,40396
1749337817.314632256,87788,-115286,0,-39,-41,0,40407
1749337817.369556542,87749,-115327,0,-38,-41,0,40365
1749337817.427638274,87711,-115368,0,-39,-42,0,40391
1749337817.483526591,87633,-115452,0,-40,-42,0,40390
1749337817.541658211,87593,-115494,0,-39,-41,0,40394
1749337817.596512794,87515,-115577,0,-40,-41,0,40410
1749337817.655676260,87475,-115618,0,-40,-42,0,40691
1749337817.714554783,87435,-115660,0,-39,-42,0,40375
1749337817.770684637,87356,-115743,0,-40,-42,0,40393
1749337817.822704587,87316,-115785,0,-40,-42,0,40892
1749337817.876702989,87236,-115869,0,-39,-42,0,40397
1749337817.930667558,87197,-115911,0,-40,-41,0,40373
1749337817.986723320,87157,-115952,0,-40,-42,0,40389
1749337818.040578074,87077,-116037,0,-40,-41,0,40386
1749337818.092759376,87037,-116078,0,-40,-42,0,40381
1749337818.147719939,86997,-116120,0,-40,-43,0,41306
1749337818.201691249,86917,-116205,0,-40,-42,0,40405
1749337818.253601015,86877,-116247,0,-40,-41,0,40371
1749337818.306672089,86837,-116288,0,-40,-42,0,40392
1749337818.364586618,86757,-116373,0,-40,-42,0,40387
1749337818.415671055,86717,-116415,0,-39,-42,0,40388
1749337818.468580963,86678,-116457,0,-40,-42,0,40400
1749337818.523680248,86597,-116541,0,-40,-42,0,40397
1749337818.580588912,86557,-116583,0,-39,-42,0,40378
1749337818.632818898,86518,-116625,0,-40,-41,0,40402
1749337818.686586524,86438,-116708,0,-40,-42,0,40597
1749337818.738731677,86398,-116750,0,-40,-42,0,40396
1749337818.794590384,86358,-116792,0,-40,-42,0,40383
1749337818.844709530,86278,-116876,0,-40,-42,0,40972
1749337818.899582816,86238,-116918,0,-40,-42,0,40376
1749337818.949722055,86198,-116960,0,-40,-42,0,40393
1749337819.001625209,86158,-117002,0,-40,-41,0,40380
1749337819.050800546,86079,-117085,0,-41,-43,0,40771
1749337819.099569626,86038,-117128,0,-40,-42,0,40373
1749337819.152624200,85998,-117170,0,-39,-41,0,40402
1749337819.206572306,85959,-117211,0,-40,-42,0,40393
1749337819.260767578,85878,-117296,0,-40,-41,0,40393
1749337819.315674308,85838,-117337,0,-39,-42,0,40373
1749337819.365740325,85799,-117379,0,-40,-42,0,40385
1749337819.421691753,85719,-117462,0,-41,-43,0,41326
1749337819.470723183,85678,-117505,0,-40,-42,0,40377
1749337819.527683125,85638,-117547,0,-39,-41,0,40376
1749337819.583619683,85558,-117630,0,-40,-42,0,40392
1749337819.637757158,85518,-117672,0,-39,-41,0,40380
1749337819.692738685,85479,-117713,0,-40,-42,0,40386
1749337819.748764650,85399,-117796,0,-40,-42,0,40779
1749337819.801622058,85359,-117838,0,-40,-42,0,40370
1749337819.852788458,85319,-117880,0,-39,-41,0,40387
1749337819.905641033,85240,-117963,0,-40,-42,0,40965
1749337819.956832636,85200,-118005,0,-40,-41,0,40369
1749337820.005606994,85160,-118046,0,-40,-42,0,40379
1749337820.058794308,85120,-118088,0,-32,-33,0,40384
1749337820.117727053,85067,-118142,0,-13,-13,0,40790
1749337820.165831914,85054,-118155,0,-4,-6,0,40372
1749337820.221643806,85050,-118161,0,-3,-1,0,40369
1749337820.279641723,85056,-118177,0,29,-42,0,41239
1749337820.335733225,85085,-118219,0,53,-63,0,40405
1749337820.394870617,85211,-118362,0,89,-94,0,40405
1749337820.452797719,85300,-118456,0,105,-107,0,41617
1749337820.502638108,85405,-118563,0,111,-111,0,40382
1749337820.555831774,85634,-118792,0,123,-122,0,40407
1749337820.605606385,85757,-118914,0,128,-126,0,40386
1749337820.663799097,85885,-119040,0,131,-127,0,40397
1749337820.719719618,86149,-119297,0,136,-131,0,40407
1749337820.776869503,86285,-119428,0,136,-132,0,40378
1749337820.829685652,86421,-119560,0,139,-132,0,40390
1749337820.884811696,86700,-119827,0,140,-134,0,40396
1749337820.939718668,86840,-119961,0,139,-134,0,40407
1749337820.990823567,87119,-120230,0,142,-137,0,40990
1749337821.045683872,87261,-120367,0,140,-135,0,40404
1749337821.102818775,87401,-120502,0,140,-135,0,40403
1749337821.160734008,87682,-120772,0,144,-139,0,41448
1749337821.210887394,87826,-120911,0,140,-134,0,40368
1749337821.264750390,87966,-121045,0,141,-135,0,40401
1749337821.318810199,88247,-121316,0,143,-137,0,41094
1749337821.374723072,88390,-121453,0,140,-136,0,40363
1749337821.432836896,88530,-121589,0,141,-135,0,40403
1749337821.487665294,88811,-121860,0,141,-135,0,40399
1749337821.535939506,88952,-121995,0,141,-136,0,40560
1749337821.591702065,89093,-122131,0,140,-136,0,40376
1749337821.643714441,89374,-122403,0,141,-136,0,40416
1749337821.697816176,89515,-122539,0,144,-137,0,40956
1749337821.751758875,89659,-122676,0,141,-136,0,40413
1749337821.806865845,89941,-122947,0,141,-136,0,40408
1749337821.856721104,90082,-123083,0,146,-140,0,41663
1749337821.911824814,90228,-123223,0,142,-136,0,40401
1749337821.964781408,90370,-123359,0,141,-135,0,40416
1749337822.018885550,90656,-123633,0,141,-136,0,40395
1749337822.068725439,90797,-123769,0,142,-137,0,40404
1749337822.119785542,90939,-123906,0,141,-136,0,40397
1749337822.175866674,91221,-124179,0,144,-139,0,41241
1749337822.229841909,91365,-124318,0,142,-136,0,40363
1749337822.283713423,91507,-124454,0,141,-137,0,40424
1749337822.338851579,91792,-124730,0,141,-137,0,40409
1749337822.392801259,91933,-124867,0,142,-137,0,40381
1749337822.444889005,92075,-125004,0,140,-137,0,40411
1749337822.497813969,92356,-125278,0,142,-137,0,40653
1749337822.550912580,92498,-125415,0,141,-137,0,40389
1749337822.602740383,92639,-125552,0,141,-137,0,40401
1749337822.658897921,92780,-125689,0,141,-137,0,40423
1749337822.707867148,93064,-125966,0,141,-137,0,40401
1749337822.764895996,93205,-126103,0,141,-138,0,40406
1749337822.814731255,93346,-126241,0,142,-137,0,40393
1749337822.871919991,93634,-126520,0,141,-138,0,40399
1749337822.925840931,93775,-126658,0,142,-137,0,40375
1749337822.974953472,93917,-126795,0,141,-137,0,40401
1749337823.026917496,94202,-127072,0,142,-137,0,40413
1749337823.078790503,94344,-127209,0,142,-137,0,40386
1749337823.132902553,94486,-127346,0,142,-138,0,40407
1749337823.184823670,94773,-127626,0,142,-137,0,40395
1749337823.243886266,94915,-127763,0,141,-138,0,40383
1749337823.299746362,95056,-127901,0,142,-137,0,40402
1749337823.352904695,95341,-128178,0,141,-137,0,40404
1749337823.407815444,95482,-128315,0,142,-138,0,40391
1749337823.462938192,95624,-128453,0,141,-137,0,40409
1749337823.516766298,95906,-128727,0,144,-141,0,41355
1749337823.574935418,96050,-128868,0,141,-137,0,40376
1749337823.626805480,96191,-129005,0,141,-138,0,40387
1749337823.676970237,96476,-129284,0,141,-138,0,40397
1749337823.730897233,96617,-129422,0,141,-137,0,40376
1749337823.786979882,96758,-129559,0,141,-138,0,40406
1749337823.839897624,97040,-129835,0,143,-139,0,40641
1749337823.892977865,97183,-129974,0,141,-138,0,40377
1749337823.946887656,97324,-130112,0,142,-137,0,40403
1749337824.002020256,97608,-130387,0,143,-141,0,40938
1749337824.054887498,97751,-130528,0,141,-138,0,40398
1749337824.107977349,97892,-130666,0,142,-138,0,40382
1749337824.162907413,98176,-130942,0,141,-137,0,40412
1749337824.213973128,98317,-131079,0,143,-139,0,40760
1749337824.266890258,98460,-131218,0,142,-137,0,40398
1749337824.322966890,98602,-131355,0,142,-138,0,40393
1749337824.379059706,98885,-131630,0,144,-140,0,40981
1749337824.433022831,99029,-131770,0,142,-138,0,40386
1749337824.481839818,99312,-132046,0,141,-137,0,40393
1749337824.535967404,99453,-132183,0,145,-142,0,41533
1749337824.588879535,99598,-132325,0,141,-139,0,40406
1749337824.642266570,99739,-132464,0,142,-138,0,40390
1749337824.693845689,100021,-132740,0,144,-141,0,41061
1749337824.749999450,100165,-132881,0,140,-138,0,40404
1749337824.802862062,100305,-133019,0,141,-139,0,40395
1749337824.855060400,100587,-133296,0,141,-138,0,40420
1749337824.908918896,100728,-133434,0,144,-141,0,41032
1749337824.963978403,100872,-133575,0,141,-138,0,40393
1749337825.017867010,101155,-133851,0,145,-142,0,41540
1749337825.073011443,101300,-133993,0,141,-138,0,40393
1749337825.127881914,101441,-134131,0,142,-139,0,40388
1749337825.176061127,101725,-134408,0,142,-139,0,40397
1749337825.227899356,101867,-134547,0,121,-118,0,40761
1749337825.285990957,101988,-134665,0,90,-86,0,40380
1749337825.343009732,102142,-134812,0,45,-40,0,40408
1749337825.403079304,102187,-134852,0,30,-27,0,40943
1749337825.455025143,102217,-134879,0,19,-14,0,40370
1749337825.504992012,102240,-134909,0,0,-20,0,40389
1749337825.554081183,102240,-134929,0,-1,-26,0,40402
1749337825.608920543,102239,-134955,0,-3,-29,0,40688
1749337825.666889164,102221,-135017,0,-22,-34,0,40401
1749337825.723066628,102199,-135051,0,-26,-36,0,40364
1749337825.775007597,102173,-135087,0,-31,-39,0,40953
1749337825.832080408,102109,-135164,0,-35,-40,0,40378
1749337825.887023472,102074,-135204,0,-36,-40,0,40389
1749337825.940067416,102038,-135244,0,-37,-40,0,40386
1749337825.990979910,101962,-135325,0,-38,-42,0,40392
1749337826.046129935,101924,-135367,0,-39,-41,0,40380
1749337826.097032225,101885,-135408,0,-39,-41,0,40394
1749337826.150292854,101806,-135492,0,-39,-41,0,40415
1749337826.203079633,101767,-135533,0,-40,-42,0,40370
1749337826.255040917,101727,-135575,0,-39,-42,0,40391
1749337826.302886872,101648,-135659,0,-40,-42,0,40849
1749337826.359002114,101608,-135701,0,-40,-42,0,40392
1749337826.410968250,101568,-135743,0,-40,-42,0,40391
1749337826.467047733,101528,-135785,0,-40,-42,0,40369
1749337826.520915303,101448,-135869,0,-40,-42,0,40394
1749337826.574113487,101408,-135911,0,-40,-42,0,40386
1749337826.624937037,101368,-135953,0,-40,-42,0,40381
1749337826.678038055,101288,-136037,0,-40,-42,0,40647
1749337826.731077500,101248,-136079,0,-40,-42,0,40372
1749337826.788055904,101208,-136121,0,-40,-42,0,40390
1749337826.840021762,101128,-136205,0,-40,-43,0,41024
1749337826.898088326,101088,-136248,0,-40,-42,0,40383
1749337826.952975816,101048,-136290,0,-40,-42,0,40386
1749337827.007077292,100968,-136374,0,-40,-42,0,40396
1749337827.063019128,100928,-136416,0,-40,-42,0,40749
